stop_id,stop_code,stop_name,stop_lat,stop_lon
0001,0001,Keskustori M,61.49751,23.76151
0002,0002,Keskustori L,61.49756,23.76148
0003,0003,Keskustori A,61.49753,23.75773
0005,0005,Keskustori P,61.49740,23.76154
0007,0007,Keskustori O,61.49734,23.76154
0008,0008,Keskustori N,61.49746,23.76153
0010,0010,Keskustori F,61.49751,23.75867
0011,0011,Keskustori G,61.49753,23.75906
0012,0012,Keskustori H,61.49759,23.76050
0013,0013,Keskustori K,61.49765,23.76134
0014,0014,Keskustori E,61.49783,23.76091
0015,0015,Keskustori D,61.49779,23.76043
0016,0016,Tuulensuu A,61.49723,23.75291
0017,0017,Tuulensuu F,61.49713,23.75352
0018,0018,Tuulensuu B,61.49724,23.75317
0019,0019,Tuulensuu E,61.49711,23.75321
0020,0020,Tuulensuu C,61.49728,23.75371
0021,0021,Tuulensuu D,61.49709,23.75300
0022,0022,Metso,61.49775,23.75064
0024,0024,Metso,61.49772,23.75017
0025,0025,Aleksanterin kirkko,61.49744,23.74832
0028,0028,Pyynikintori,61.49799,23.74248
0029,0029,Pyynikintori,61.49776,23.74214
0031,0031,Pyynikintori,61.49750,23.74202
0035,0035,Keskustori C,61.49770,23.75931
0036,0036,Keskustori B,61.49769,23.75899
0038,0038,Finlayson,61.50061,23.75940
0040,0040,Keskustori J,61.49707,23.76118
0041,0041,Keskustori R,61.49726,23.76161
0042,0042,Keskustori I,61.49744,23.76080
0043,0043,Laukontori,61.49524,23.76022
0044,0044,Laukontori,61.49532,23.76014
0045,0045,Nalkalantori,61.49346,23.75560
0046,0046,Satamakatu 8,61.49491,23.75486
0047,0047,Pyynikin koulu,61.49389,23.75268
0048,0048,Satamakatu 16,61.49450,23.74884
0049,0049,Satamakatu,61.49427,23.74837
0050,0050,Hämeenpuisto 45,61.49370,23.75382
0051,0051,Eteläpuisto,61.49276,23.75678
0052,0052,Pikkupalatsi,61.50138,23.75137
0053,0053,Hämeenpuisto 14,61.49978,23.75075
0054,0054,Näsinkallio,61.50271,23.74909
0055,0055,Näsinkallio,61.50258,23.74916
0056,0056,Särkänniemi,61.50316,23.74594
0057,0057,Särkänniemi,61.50255,23.74439
0058,0058,Mustanlahdenkatu,61.50008,23.74948
0059,0059,Mustanlahdenkatu,61.49991,23.74953
0060,0060,Sotkankatu,61.49954,23.74171
0061,0061,Sotkankatu,61.49932,23.74157
0064,0064,Mariankatu,61.49685,23.74453
0065,0065,Mariankatu,61.49697,23.74482
0066,0066,Hämeenpuisto 17,61.49971,23.75186
0069,0069,Kauppakatu,61.49824,23.75455
0070,0070,Aleksis Kiven katu,61.49892,23.75971
0072,0072,Satakunnankatu 23,61.50023,23.75482
0079,0079,Hämeenpuisto 26,61.49631,23.75188
0080,0080,Hämeenpuisto 31,61.49657,23.75289
0083,0083,Hämeenpuisto 10,61.50093,23.75038
0087,0087,Finlayson,61.50065,23.75744
0098,0098,Savilinna,61.50023,23.73747
0099,0099,Savilinna,61.50018,23.73719
0500,0500,Koskipuisto C,61.49794,23.76558
0501,0501,Koskipuisto A,61.49821,23.76525
0502,0502,Koskipuisto D,61.49806,23.76652
0503,0503,Koskipuisto B,61.49822,23.76649
0504,0504,Rautatieasema I,61.49837,23.77095
0505,0505,Rautatieasema H,61.49852,23.77061
0506,0506,Rautatieasema,61.49810,23.77169
0508,0508,Rautatieasema J,61.49866,23.77249
0509,0509,Itsenäisyydenkatu 3,61.49901,23.77738
0510,0510,Itsenäisyydenkatu 10,61.49887,23.78125
0511,0511,Itsenäisyydenkatu 13,61.49907,23.78123
0513,0513,Itsenäisyydenkatu 25,61.49909,23.78487
0514,0514,Koskipuisto G,61.49724,23.76606
0516,0516,Itsenäisyydenkatu 16,61.49892,23.78536
0517,0517,Koskipuisto H,61.49773,23.76562
0518,0518,Koskipuisto E,61.49756,23.76536
0519,0519,Koskipuisto I,61.49751,23.76606
0520,0520,Koskipuisto F,61.49737,23.76573
0521,0521,Linja-autoasema,61.49362,23.76950
0522,0522,Linja-autoasema,61.49361,23.77022
0523,0523,Linja-autoasema,61.49380,23.77054
0524,0524,Tampereen valtatie,61.49133,23.77215
0525,0525,Viinikan liittymä,61.49047,23.78035
0526,0526,Rautatieasema,61.49826,23.77233
0528,0528,Klassillinen koulu,61.50077,23.77122
0529,0529,Klassillinen koulu,61.50112,23.77070
0536,0536,Paloasema,61.50109,23.76501
0537,0537,Paloasema,61.50127,23.76531
0540,0540,Tammelankatu,61.49985,23.77987
0541,0541,Tammelantori,61.50219,23.77929
0542,0542,Tammelantori,61.50210,23.77971
0543,0543,Parantolankatu,61.50771,23.77808
0544,0544,Parantolankatu,61.50763,23.77760
0545,0545,Tapionkatu,61.50399,23.77933
0546,0546,Tapionkatu,61.50399,23.77961
0552,0552,Viola-koti,61.50329,23.76512
0555,0555,Tammelan koulu,61.50161,23.78666
0556,0556,Tammelan koulu,61.50230,23.78698
0557,0557,Kalevan puistotie 6,61.50423,23.78624
0560,0560,Yliopistonkatu,61.49854,23.77957
0561,0561,Tampere-talo,61.49671,23.77995
0562,0562,Tampere-talo,61.49637,23.77967
0563,0563,Yliopisto,61.49471,23.77775
0564,0564,Yliopisto,61.49497,23.77908
0565,0565,Yliopisto,61.49514,23.78135
0566,0566,Yliopisto,61.49493,23.78147
0567,0567,Sorsapuisto,61.49790,23.78494
0568,0568,Sorsapuisto,61.49781,23.78474
0569,0569,Sorinaukio,61.49492,23.77091
0571,0571,Viinikankatu 1,61.49236,23.78194
0572,0572,Viinikankatu 2,61.49261,23.78162
0573,0573,Rautatieasema,61.49938,23.77178
0575,0575,Rautatieasema G,61.49841,23.76923
0583,0583,Tammelan puistokatu 34,61.49954,23.77949
0596,0596,Kelloportinkatu,61.50177,23.76411
0600,0600,Lapintie 2,61.50153,23.76430
0601,0601,Tietotalo,61.49117,23.77632
0700,0700,Villa Viola,61.50349,23.76517
0701,0701,Tampellan Esplanadi,61.50572,23.76511
0702,0702,Rohdinkuja,61.50544,23.76580
0703,0703,Soukanlahdenkatu,61.50685,23.76580
10000,10000,Valkeakosken linja-autoasema,61.26373,24.03426
1000,1000,Onkiniemi,61.50235,23.73843
10010,10010,HAMK (Valkeakoski),61.28065,23.99374
1001,1001,Onkiniemi,61.50208,23.73835
10011,10011,HAMK (Valkeakoski),61.28083,23.99410
1002,1002,Santalahti,61.50232,23.72573
1003,1003,Santalahti,61.50189,23.72542
1006,1006,Rantatie,61.50540,23.71798
1007,1007,Rantatie,61.50465,23.71924
1009,1009,Venesatama,61.50630,23.71320
1010,1010,Lielahden asema,61.51068,23.68685
1011,1011,Lielahden asema,61.51063,23.68490
1012,1012,Epilänharju,61.51238,23.67543
1013,1013,Epilänharju,61.51154,23.67836
1014,1014,Harjuntausta,61.51712,23.66571
1015,1015,Harjuntausta,61.51651,23.66423
1016,1016,Lielahtikeskus,61.52026,23.67163
1017,1017,Lielahtikeskus,61.51982,23.66991
1018,1018,Lielahden koulu,61.52183,23.67479
1019,1019,Lielahden koulu,61.52202,23.67440
1021,1021,Harjuntausta 11,61.51641,23.66629
1022,1022,Isoniemenkatu,61.52338,23.68821
1023,1023,Isoniemenkatu,61.52351,23.68722
1024,1024,Männistönkuja,61.52700,23.70351
1025,1025,Männistönkuja,61.52712,23.70355
1026,1026,Jänislampi,61.52818,23.70912
1027,1027,Jänislampi,61.52838,23.70916
1028,1028,Lentävänniemi,61.53060,23.70834
1029,1029,Pohtolankatu 25,61.52437,23.67719
1030,1030,Pohtolankatu 22,61.52390,23.67715
1031,1031,Pohtolankatu 41,61.52688,23.67864
1032,1032,Vetikonkatu,61.52625,23.67861
1033,1033,Isoniemenkatu,61.52681,23.68942
1034,1034,Vähäniemenkatu 28,61.52677,23.68715
1035,1035,Federleynkatu,61.52318,23.68151
1036,1036,Federleynkatu,61.52307,23.68218
1037,1037,Parrukatu,61.52910,23.67874
1038,1038,Isoniemenkatu,61.52831,23.67931
1039,1039,Listakatu,61.53146,23.67668
1040,1040,Listakatu,61.53196,23.67672
1041,1041,Papusenkatu,61.53329,23.67539
1042,1042,Papusenkatu,61.53342,23.67572
1043,1043,Pohtola,61.53754,23.67524
1044,1044,Possilanraitti,61.52745,23.67280
1045,1045,Välisalonkuja,61.52654,23.66981
1046,1046,Ihaistenkatu,61.53770,23.67577
1047,1047,Laatokantie,61.55510,23.66200
1049,1049,Viirakatu,61.52243,23.66474
1051,1051,Teivaalantie 31,61.52499,23.66042
1052,1052,Possilankatu 2-4,61.52285,23.66573
1053,1053,Teivaalantie 7,61.52202,23.66559
1054,1054,Kukkolankatu,61.52843,23.66718
1055,1055,Kukkolankatu,61.52784,23.66755
1056,1056,Viholankuja,61.53043,23.66518
1057,1057,Viholankatu,61.53032,23.66504
1058,1058,Ritalankatu,61.52957,23.66017
1059,1059,Ritalankatu,61.52978,23.66070
1060,1060,Possilankatu 18,61.52527,23.66795
1061,1061,Possilankatu 15,61.52456,23.66700
1062,1062,Itämäenkatu,61.52755,23.67791
1063,1063,Possilanraitti,61.52754,23.67465
1064,1064,Lintulamminkatu 4,61.52671,23.66883
1065,1065,Possilankatu 25,61.52629,23.66875
1066,1066,Enqvistinkatu,61.51491,23.67269
1067,1067,Enqvistinkatu,61.51395,23.67336
1068,1068,Sellukatu,61.51711,23.66907
1069,1069,Harjuntausta 7,61.51502,23.66890
1071,1071,Ryydynpohja,61.52705,23.65798
1072,1072,Harjuntausta 4,61.51457,23.67027
1073,1073,Välisalonkuja,61.52668,23.66966
1075,1075,Harjunsivu,61.51588,23.67061
1100,1100,Reuharinniemi,61.52900,23.72021
1101,1101,Airokatu,61.52752,23.70959
1102,1102,Airokatu,61.52726,23.71108
1200,1200,Nuoralahti,61.54077,23.67787
1201,1201,Nuoralahti,61.54081,23.67771
1202,1202,Leppästentie,61.54332,23.68075
1203,1203,Leppästentie,61.54301,23.67994
1204,1204,Vasamantie,61.54526,23.68239
1205,1205,Vasamantie,61.54478,23.68205
1206,1206,Lamminsyrjäntie,61.54847,23.67478
1207,1207,Lamminsyrjäntie,61.54824,23.67509
1208,1208,Siivikkalan koulu,61.54946,23.66822
1209,1209,Siivikkalan koulu,61.54915,23.66899
1210,1210,Siivikkala,61.55070,23.65651
1211,1211,Siivikkala,61.55061,23.65603
1212,1212,Siivikkala th,61.55106,23.65560
1214,1214,Myllyhaantie,61.55301,23.65707
1215,1215,Myllyhaantie,61.55247,23.65647
1409,1409,Lielahden koulu,61.52032,23.67003
1414,1414,Soirokatu,61.52655,23.69449
1416,1416,Lentävänniemen koulu,61.52710,23.69981
1417,1417,Lentävänniemen koulu,61.52727,23.69867
1450,1450,Prisma Lielahti,61.51909,23.66540
1451,1451,Prisma Lielahti,61.51884,23.66530
1500,1500,Ammattikoulu,61.49863,23.73551
1501,1501,Ammattikoulu,61.49840,23.73541
1502,1502,Tipotie,61.49888,23.72763
1503,1503,Pirkankatu 37,61.49893,23.72670
1504,1504,Rajaportti,61.50212,23.72090
1505,1505,Rajaportti,61.50113,23.72253
1506,1506,Pulteri,61.50433,23.71473
1507,1507,Pulteri,61.50363,23.71647
1508,1508,Ahjola,61.50516,23.70968
1509,1509,Ahjola,61.50503,23.70916
1510,1510,Pispalantori,61.50641,23.69943
1511,1511,Pispalantori,61.50618,23.69874
1512,1512,Hyhkynkatu,61.50744,23.69116
1513,1513,Hyhkynkatu,61.50705,23.69380
1514,1514,Haapalinna,61.50875,23.68172
1515,1515,Haapalinna,61.50857,23.68273
1518,1518,Epilä,61.50837,23.67131
1519,1519,Epilä,61.50815,23.67058
1520,1520,Pispalan vt 138,61.50767,23.66525
1521,1521,Pispalan vt 141,61.50756,23.66573
1522,1522,Winterin alue,61.50468,23.66087
1523,1523,Winterin alue,61.50512,23.66178
1524,1524,Kaarila,61.50250,23.65675
1525,1525,Puistokaarila,61.50262,23.65765
1526,1526,Nokiantie 36,61.50107,23.65011
1527,1527,Nokiantie,61.50080,23.64979
1528,1528,Tesoman vt 26,61.50204,23.64296
1529,1529,Risuharjunkatu,61.50142,23.64506
1530,1530,Kokkolankatu,61.50288,23.63473
1531,1531,Kokkolankatu,61.50214,23.63620
1532,1532,Länsitori,61.50483,23.62961
1533,1533,Länsitori,61.50448,23.62971
1534,1534,Tesomajärvenkatu,61.50469,23.61728
1535,1535,Tesomajärvenkatu,61.50442,23.61906
1536,1536,Tesomankatu,61.50463,23.61170
1537,1537,Tesomankatu 27,61.50442,23.61272
1539,1539,Tesomankatu 31,61.50424,23.60652
1540,1540,Virontörmänkatu 2,61.50506,23.60511
1541,1541,Virontörmänkatu 1,61.50469,23.60495
1543,1543,Savilinnantie ,61.49882,23.73563
1544,1544,Savilinnantie ,61.49910,23.73612
1545,1545,Mattilankatu,61.50307,23.68529
1546,1546,Peurankatu,61.50653,23.68276
1547,1547,Pispan palvelukeskus,61.50211,23.68840
1548,1548,Pispan palvelukeskus,61.50174,23.68786
1549,1549,Simolankatu 7,61.50069,23.68318
1550,1550,Simolankatu 18,61.50079,23.68300
1551,1551,Simolankatu 27,61.50023,23.67588
1552,1552,Simolankatu 32,61.50037,23.67624
1553,1553,Ojustenkatu,61.49943,23.66961
1554,1554,Simolankatu 54,61.49928,23.66871
1555,1555,Siirtolapuutarha,61.49963,23.66546
1556,1556,Siirtolapuutarha,61.49967,23.66581
1557,1557,Vaakkolampi,61.50206,23.66343
1558,1558,Vaakkolampi,61.50229,23.66301
1561,1561,Piikahaka,61.50032,23.64448
1562,1562,Piikahaka,61.50022,23.64301
1563,1563,Jurvalankatu,61.49945,23.63978
1564,1564,Metsäkylänkatu,61.49891,23.63616
1565,1565,Pukkisaarenkatu,61.49806,23.63437
1566,1566,Vanha Kirkkotie,61.49778,23.63132
1567,1567,Vanha Kirkkotie 7,61.49891,23.62894
1568,1568,Korvenkatu 34,61.49957,23.61955
1570,1570,Korvenkatu 44,61.49929,23.61642
1572,1572,Korvenkatu 57,61.49948,23.62358
1573,1573,Vanha kirkkotie 21,61.50180,23.62898
1574,1574,Vanha Kirkkotie 10,61.49918,23.62910
1576,1576,Vanha kirkkotie 24,61.50181,23.62930
1579,1579,Kokkolankatu 2,61.50247,23.63363
1580,1580,Ristaniitynkatu,61.49814,23.59192
1582,1582,Ristaniitynkatu 13,61.49720,23.58774
1583,1583,Ristaniitynkatu 10,61.49689,23.58732
1584,1584,Pitkäniemenkatu,61.49572,23.58510
1585,1585,Pitkäniemenkatu,61.49575,23.58540
1586,1586,Kalkun viertotie 17,61.49452,23.57879
1587,1587,Kalkun viertotie,61.49428,23.57972
1588,1588,Kalkun viertotie 20,61.49418,23.57528
1589,1589,Petsankatu,61.49412,23.57570
1592,1592,Kalkku,61.49475,23.56963
1593,1593,Tohlopinranta,61.50799,23.66324
1594,1594,Tohlopinranta 23,61.50812,23.66295
1595,1595,Tohlopinjärvi,61.50665,23.65658
1596,1596,Tohlopinjärvi,61.50711,23.65774
1597,1597,Mediapolis,61.50531,23.65159
1598,1598,Mediapolis,61.50545,23.65128
1599,1599,Kohmankatu,61.50345,23.64074
1600,1600,Kohmankatu,61.50378,23.64291
1601,1601,Virontörmänkatu 13,61.50857,23.60563
1602,1602,Tesomankatu 24,61.50430,23.60463
1603,1603,Kylväjäntie,61.50390,23.60122
1604,1604,Kylväjäntie,61.50408,23.60000
1605,1605,Ikurintie,61.50394,23.59270
1606,1606,Ikurintie,61.50406,23.59107
1610,1610,Terveysasema,61.50532,23.63037
1611,1611,Länsitori,61.50516,23.62995
1612,1612,Tesoman koulu,61.50743,23.62762
1613,1613,Sitarinkatu,61.50987,23.62514
1614,1614,Sitarinkatu,61.50985,23.62563
1615,1615,Tarhamäenkatu,61.51121,23.62941
1616,1616,Tarhamäenkatu,61.51095,23.62895
1617,1617,Pyydyspohjankatu,61.51291,23.63239
1618,1618,Pyydyspohjankatu,61.51350,23.63291
1619,1619,Suoniemenkatu,61.51602,23.62861
1620,1620,Suoniemenkatu,61.51592,23.62901
1621,1621,Myllypuronkatu,61.51514,23.62229
1622,1622,Myllypuronkatu,61.51561,23.62354
1623,1623,Lintuviidankatu,61.51499,23.61706
1624,1624,Lintuviidankatu,61.51523,23.61521
1625,1625,Heinämiehentie,61.51524,23.60767
1626,1626,Heinämiehentie,61.51545,23.60612
1627,1627,Maamiehentie,61.51527,23.60026
1628,1628,Maamiehentie,61.51535,23.60066
1629,1629,Ikurintie 88,61.51485,23.59713
1631,1631,Ikurinaukio,61.51178,23.59532
1633,1633,Äestäjäntie,61.50870,23.59381
1635,1635,Ikuri,61.50508,23.59257
1642,1642,Turvesuonkatu 11,61.51972,23.65743
1643,1643,Turvesuonkatu 10,61.52018,23.65716
1647,1647,Heinämiehentie 6,61.51492,23.60671
1648,1648,Epilänkatu 13,61.51080,23.66349
1649,1649,Epilänkatu 8,61.51036,23.66431
1650,1650,Mustikkaniemi,61.51316,23.65579
1651,1651,Mustikkaniemi,61.51282,23.65639
1652,1652,Epilänkatu 65,61.51648,23.64958
1653,1653,Epilänkatu,61.51608,23.64980
1654,1654,Suonsivunkatu,61.52001,23.64224
1655,1655,Pikkulampi,61.51878,23.64399
1656,1656,Ylöjärventie 22,61.52162,23.63942
1657,1657,Ylöjärventie,61.52058,23.64062
1658,1658,Ravirata,61.52308,23.63595
1659,1659,Ravirata,61.52307,23.63561
1662,1662,Rauhantie,61.52091,23.62560
1663,1663,Rauhantie,61.52118,23.62585
1664,1664,Lamminpään koulu,61.51876,23.62570
1665,1665,Lamminpään koulu,61.51820,23.62657
1666,1666,Runkokatu,61.51719,23.60702
1667,1667,Runkokatu,61.51662,23.60675
1668,1668,Haukiluoma,61.51861,23.60668
1671,1671,Peurankatu,61.50685,23.68378
1672,1672,Lamminpään hautausmaa,61.52251,23.62572
1673,1673,Lamminpään hautausmaa,61.52317,23.62597
1674,1674,Virontörmänkatu 8,61.50819,23.60569
1675,1675,Pohjanmaantie,61.50765,23.69364
1677,1677,Ristaniitynkatu,61.49798,23.59234
1693,1693,Kauppamiehenkatu,61.51060,23.60530
1694,1694,Kauppamiehenkatu,61.51062,23.60547
1695,1695,Ikurintie 47,61.50770,23.59347
1697,1697,Ikurintie 25,61.50577,23.59284
1700,1700,Ikurintie,61.51503,23.59682
1701,1701,Kohmankaari 3,61.50388,23.63669
1702,1702,Heinämiehentie,61.51279,23.60737
1703,1703,Heinämiehentie,61.51269,23.60706
1704,1704,Ikurintie 61,61.51214,23.59537
1706,1706,Tyvikatu ,61.51574,23.60701
1710,1710,Ikurintie 57,61.50957,23.59366
1712,1712,Kohmankaari 2,61.50404,23.63681
1720,1720,Korvenkatu 32,61.49957,23.62362
1730,1730,Leirikatu,61.50078,23.60718
1731,1731,Leirikatu,61.50017,23.60661
1732,1732,Juoksuhaudankatu,61.49940,23.59906
1733,1733,Juoksuhaudankatu,61.49919,23.60066
1734,1734,Kalkunvuorenkatu 3,61.49971,23.59519
1735,1735,Kalkunvuorenkatu 4,61.49948,23.59514
1740,1740,Haukihaaranraitti,61.51324,23.58226
1741,1741,Haukihaaranraitti,61.51326,23.58254
1759,1759,Vanha kirkkotie,61.49744,23.62959
1760,1760,Hutikonpolku,61.50294,23.68518
1761,1761,Villilä,61.49578,23.62178
1762,1762,Villilä,61.49677,23.62508
1763,1763,Likolampi,61.49438,23.61549
1764,1764,Likolampi,61.49425,23.61392
1765,1765,Saarenkärki,61.49328,23.60775
1766,1766,Saarenkärki,61.49320,23.60573
1767,1767,Salmenranta,61.49264,23.60264
1768,1768,Salmenranta,61.49259,23.60076
1769,1769,Mustalampi,61.49201,23.59438
1770,1770,Mustalampi,61.49218,23.59453
1771,1771,Mustavuori,61.49352,23.59290
1772,1772,Mustavuori,61.49402,23.59298
1801,1801,Kalkun kehätie,61.50352,23.58735
1802,1802,Kalkun kehätie,61.50400,23.59057
1803,1803,Kolmihaarankatu 5,61.50322,23.58405
1804,1804,Kolmihaarankatu 4,61.50324,23.58266
1805,1805,Kolmihaarankatu 7,61.50296,23.58068
1806,1806,Kolmihaarankatu 6,61.50295,23.57882
1807,1807,Pihtisulunkatu 1,61.50323,23.57447
1808,1808,Pihtisulunkatu,61.50307,23.57475
1809,1809,Sandvik,61.50672,23.57303
1820,1820,Lannemäki,61.51827,23.63675
1821,1821,Lannemäki,61.51781,23.63479
1822,1822,Ylöjärventie,61.51955,23.64536
1823,1823,Ylöjärventie,61.51915,23.64459
1900,1900,Kaarila,61.50195,23.65778
2000,2000,Mäntypuisto,61.49523,23.74421
2001,2001,Mäntypuisto,61.49454,23.74421
2002,2002,Piispantalo,61.49315,23.74360
2003,2003,Piispantalo,61.49308,23.74380
2004,2004,Pyynikintie,61.49307,23.73961
2005,2005,Pyynikintie,61.49315,23.73883
2006,2006,Rosendahl,61.49426,23.73028
2007,2007,Rosendahl,61.49402,23.73019
2008,2008,Trikookuja,61.49369,23.72476
2009,2009,Trikookuja,61.49378,23.72377
2011,2011,Varala,61.49583,23.71777
2012,2012,Varala,61.49583,23.71814
2013,2013,Tahmelankatu,61.49789,23.71610
2014,2014,Tahmelankatu 6,61.49814,23.71589
2015,2015,Hirvikatu,61.49973,23.71414
2016,2016,Hirvikatu,61.50011,23.71380
2017,2017,Tahmela,61.50372,23.70590
2018,2018,Mäntypuisto,61.49431,23.74474
2019,2019,Mäntypuisto,61.49415,23.74463
2020,2020,Palomäentie 14,61.49450,23.74179
2021,2021,Palomäentie 15,61.49443,23.74159
2022,2022,Palomäentie 32,61.49619,23.73680
2023,2023,Palomäentie 31,61.49625,23.73619
2024,2024,Tahmelan viertotie,61.50217,23.70990
2025,2025,Pyynikinharju,61.49828,23.72459
2026,2026,Pyynikinharju,61.49828,23.72476
2027,2027,Pispalanharju 1,61.50010,23.72123
2028,2028,Pispalanharju 2,61.50022,23.72114
2029,2029,Pispalanharju 19,61.50150,23.71756
2030,2030,Pispalanharju 18,61.50164,23.71744
2031,2031,Pispalanharju ,61.50358,23.71184
2033,2033,Tahmelan viertotie,61.50149,23.71106
2500,2500,Verotalo,61.48781,23.76932
2501,2501,Hatanpään vt 24,61.49100,23.77149
2502,2502,Hatanpään vt 25,61.48598,23.76475
2503,2503,Viinikanlahti,61.48845,23.77081
2505,2505,Verotalo,61.48636,23.76680
2506,2506,Hatanpään vt 31,61.48303,23.76232
2507,2507,Hatanpään vt 42,61.48294,23.76297
2508,2508,Vihilahti,61.48056,23.76299
2509,2509,Vihilahti,61.47963,23.76363
2510,2510,Hatanpään koulu,61.47504,23.76398
2511,2511,Hatanpään koulu,61.47527,23.76442
2512,2512,Rantaperkiö,61.47345,23.75971
2513,2513,Rantaperkiö,61.47299,23.75899
2514,2514,Kannistonkatu,61.47140,23.75508
2515,2515,Kannistonkatu,61.47114,23.75499
2516,2516,Talvitie,61.47005,23.74827
2517,2517,Talvitie,61.46991,23.75067
2518,2518,Leirintäkatu ,61.47019,23.74097
2519,2519,Leirintäkatu,61.47012,23.74164
2520,2520,Härmälän koulu,61.47061,23.73265
2521,2521,Härmälän koulu,61.47048,23.73373
2524,2524,Valmetinkatu,61.47062,23.72613
2525,2525,Sarvis,61.48604,23.76140
2526,2526,Sarvis,61.48622,23.76244
2527,2527,Hatanpään sairaala,61.48428,23.75764
2528,2528,Hatanpään hovi,61.47682,23.76497
2529,2529,Hatanpään hovi,61.47690,23.76714
2540,2540,Sarankulmankatu 20,61.46093,23.75059
2541,2541,Sarankulmankatu,61.46079,23.75080
2544,2544,Patamäenkatu 12,61.45676,23.73934
2545,2545,Patamäenkatu 9,61.45725,23.74058
2548,2548,Keskuojankatu,61.45720,23.73302
2549,2549,Keskuojanpolku,61.45675,23.73374
2550,2550,Pöytäsarankatu,61.45889,23.73050
2551,2551,Pöytäsarankatu,61.45880,23.73023
2552,2552,Nuutisarankatu 22,61.46150,23.72630
2553,2553,Nuutisarankatu 35,61.46137,23.72603
2554,2554,Messukeskus A,61.46329,23.73325
2556,2556,Hatanpään sairaala,61.48435,23.75743
2557,2557,Toivionkatu,61.46254,23.71889
2558,2558,Valmetinkatu,61.47076,23.72505
2560,2560,Messukeskus B,61.46312,23.73325
2561,2561,Ruotutie 8,61.45869,23.71926
2565,2565,Ojatie,61.45575,23.72388
2566,2566,Ojatie,61.45606,23.72368
2568,2568,Ruotutie 3,61.45894,23.71919
2569,2569,Hatanpään puistokuja,61.48357,23.76089
2570,2570,Toivionkatu,61.46210,23.71952
2571,2571,Sarankulmankatu 25,61.45953,23.74670
2572,2572,Toivionkatu 3,61.46140,23.72415
2576,2576,Hatanpään sairaala,61.48530,23.75710
2577,2577,Rukkamäentie 15,61.45171,23.74714
2578,2578,Rukkamäentie 15,61.45149,23.74675
2579,2579,Peltolammin koulu,61.45425,23.74746
2580,2580,Peltolammin koulu,61.45438,23.74705
2582,2582,Kenkätie 2,61.46940,23.71901
2583,2583,Ilmailunkatu,61.46276,23.74438
2584,2584,Kenkätie 6,61.46724,23.71830
2585,2585,Metsolankatu,61.46257,23.75258
2586,2586,Rukkamäki,61.45927,23.74590
2587,2587,Sarankulmankatu 14,61.46674,23.76067
2588,2588,Sarankulmankatu 14,61.46628,23.75980
2590,2590,Kenkätie,61.46576,23.71925
2591,2591,Kenkätie,61.46577,23.71870
2592,2592,Saapastie,61.46682,23.72156
2593,2593,Saapastie,61.46705,23.72138
2594,2594,Ilmailunkatu,61.46292,23.74444
2595,2595,Kenkätie,61.46734,23.71872
2596,2596,Metsolankatu,61.46280,23.75421
2597,2597,Partola,61.46927,23.71929
2598,2598,Hatanpään koulu,61.47376,23.76415
2603,2603,Pereentie,61.47691,23.70876
2604,2604,Pereentie,61.47710,23.70541
2605,2605,Kutteritie,61.47621,23.71215
2606,2606,Kutteritie,61.47647,23.71184
2607,2607,Partolanhovi,61.47259,23.71841
2608,2608,Partolanhovi,61.47301,23.71854
2610,2610,Loukonlahdentie,61.47600,23.69233
2611,2611,Loukonlahdentie,61.47619,23.69300
2612,2612,Kreetankuja,61.47354,23.69208
2613,2613,Kreetankuja,61.47412,23.69215
2621,2621,Toiviontie,61.46188,23.71853
2623,2623,Toivionkatu 3,61.46168,23.72392
2624,2624,Korpitie,61.45454,23.72788
2625,2625,Korpitie,61.45427,23.72835
2626,2626,Patamäenkatu 16,61.45538,23.73670
2627,2627,Patamäenkatu 11,61.45530,23.73690
2630,2630,Sarankulma,61.45784,23.74209
3000,3000,Viinikan liittymä,61.48941,23.77941
3001,3001,Kaartotie,61.48797,23.77924
3002,3002,Kuokkamaantie,61.48301,23.77635
3003,3003,Kuokkamaantie,61.48281,23.77682
3004,3004,Koivistontie,61.47272,23.77445
3005,3005,Koivistontie,61.47267,23.77502
3006,3006,Ekankulma,61.46903,23.77457
3007,3007,Ekankulma,61.46996,23.77485
3008,3008,Veturihallit,61.46375,23.76494
3009,3009,Veturihallit,61.46441,23.76653
3010,3010,Säästäjänkatu,61.45865,23.76072
3011,3011,Säästäjänkatu,61.45955,23.76160
3012,3012,Tilkonmäenkatu,61.45489,23.75926
3013,3013,Automiehenkatu,61.45567,23.76011
3014,3014,Pähkinämäenkatu,61.45064,23.75489
3015,3015,Pähkinämäenkatu,61.45086,23.75558
3016,3016,Valkama,61.44783,23.75096
3017,3017,Valkama,61.44774,23.75125
3018,3018,Kitinrinne,61.44409,23.74711
3019,3019,Kitinrinne,61.44464,23.74749
3020,3020,Multisillankatu,61.44063,23.74956
3021,3021,Multisillankatu,61.44087,23.74963
3022,3022,Multisilta,61.43375,23.75800
3024,3024,Ahlmanintie,61.48721,23.78330
3025,3025,Viinikan kirkko,61.48652,23.78444
3026,3026,Viinikan kirkko,61.48558,23.78542
3027,3027,Viinikan puisto,61.48473,23.78699
3028,3028,Nekalan koulu,61.48259,23.78919
3029,3029,Nekalan koulu,61.48267,23.78950
3030,3030,Kuokkamaantie 17,61.48218,23.78365
3031,3031,Kuokkamaantie 6,61.48202,23.78327
3032,3032,Viinikankatu 40,61.48041,23.78252
3033,3033,Viinikankatu 49,61.48000,23.78284
3034,3034,Viinikankatu 42,61.47708,23.78283
3035,3035,Viinikankatu 57,61.47683,23.78313
3036,3036,Ammattikoulu,61.47244,23.78387
3037,3037,Ammattikoulu,61.47363,23.78391
3038,3038,Huikarinkatu,61.47073,23.78741
3039,3039,Koivistontie 35,61.47099,23.78507
3040,3040,Mahlankatu,61.47100,23.79111
3041,3041,Mahlankatu,61.47124,23.79227
3042,3042,Valkama,61.44750,23.74963
3043,3043,Valkama,61.44764,23.74988
3044,3044,Nirvankatu 18,61.46851,23.79253
3045,3045,Nirvankatu,61.46890,23.79163
3046,3046,Haukisenkatu,61.46667,23.80016
3047,3047,Haukisenkatu,61.46674,23.80049
3048,3048,Isännänkatu,61.46607,23.80690
3049,3049,Isännänkatu,61.46627,23.80722
3050,3050,Veisu,61.46874,23.81204
3051,3051,Veisu,61.46888,23.81189
3052,3052,Multiojankatu,61.43669,23.74984
3053,3053,Vuoreksenkatu,61.43431,23.75156
3054,3054,Emännänkatu,61.47118,23.81289
3055,3055,Emännänkatu,61.47117,23.81261
3056,3056,Vuoreksenkatu,61.43422,23.75150
3060,3060,Korkinmäki,61.47310,23.83194
3061,3061,Lokintaival,61.48888,23.78595
3062,3062,Nekalantie 8,61.48841,23.78551
3063,3063,Nekalantie 29,61.48769,23.78896
3064,3064,Nekalantie 38,61.48720,23.79003
3065,3065,Nekalantie 55,61.48538,23.79583
3066,3066,Nekalantie 54,61.48497,23.79689
3067,3067,Riihitie,61.48390,23.79852
3068,3068,Jokipohjantie 18,61.48171,23.79767
3069,3069,Jokipohjantie 23,61.48167,23.79794
3070,3070,Liikennelaitos,61.47902,23.79784
3071,3071,Liikennelaitos,61.47897,23.79807
3072,3072,Jokipohjantie 26,61.47756,23.79787
3073,3073,Jokipohjantie 53,61.47754,23.79814
3074,3074,Muotialantie 38,61.47712,23.80513
3075,3075,Muotialantie 23,61.47722,23.80439
3076,3076,Siirtolapuutarha,61.47718,23.80898
3077,3077,Siirtolapuutarha,61.47727,23.80923
3078,3078,Muotialantie ,61.47705,23.81554
3079,3079,Muotialantie 43,61.47715,23.81531
3080,3080,Nekalantie 110,61.47895,23.83039
3081,3081,Seurakuntatalo,61.47996,23.80037
3082,3082,Seurakuntatalo,61.47983,23.80001
3083,3083,Kuoppamäentie 29,61.48002,23.80427
3084,3084,Kuoppamäentie 34,61.47993,23.80443
3085,3085,Siirtolapuutarha,61.48015,23.81030
3086,3086,Kuoppamäentie 44,61.48002,23.80927
3088,3088,Uotilantie,61.48015,23.81603
3090,3090,Koivistontie,61.47179,23.77543
3091,3091,Ammattikoulu,61.47115,23.78256
3092,3092,Ammattikoulu,61.47100,23.78281
3093,3093,Santamatinkatu,61.47238,23.80002
3094,3094,Santamatinkatu,61.47231,23.80125
3095,3095,Ahlman,61.47303,23.80538
3096,3096,Ahlman,61.47295,23.80674
3097,3097,Steiner-koulu,61.47823,23.82507
3098,3098,Steiner-koulu,61.47827,23.82620
3099,3099,Ahlmanintie,61.48244,23.79022
3100,3100,Kuokkamaantie 14,61.48230,23.78999
3102,3102,Koivistonkeskus,61.46986,23.78770
3103,3103,Koivistonkeskus,61.46961,23.78904
3104,3104,Nirvankallionkatu,61.46523,23.79231
3105,3105,Nirvankallionkatu,61.46550,23.79420
3106,3106,Nirvankatu 52,61.46550,23.78973
3107,3107,Nirvansuonkatu,61.46541,23.78966
3108,3108,Tuotekatu 4,61.45936,23.78435
3109,3109,Veturikatu,61.47618,23.77208
3110,3110,Veturikatu,61.47608,23.77067
3112,3112,Leppästensuonkatu,61.45512,23.78083
3115,3115,Lempääläntie 31,61.46132,23.76339
3116,3116,Lempääläntie,61.46077,23.76198
3117,3117,Pullerikinahde,61.47865,23.84043
3118,3118,Uotilantie,61.47995,23.81682
3120,3120,Sotilaankatu ,61.47833,23.84176
3121,3121,Loukkaankatu,61.47327,23.81927
3122,3122,Hallilantie ,61.47307,23.81447
3123,3123,Hallilantie,61.47338,23.81275
3124,3124,Loukkaankatu,61.47316,23.82077
3125,3125,Kuusikonkatu,61.46740,23.83575
3126,3126,Kiulukatu,61.47231,23.82001
3127,3127,Lehtimetsänkatu,61.46740,23.82702
3128,3128,Pehkusuonkatu,61.46646,23.82275
3129,3129,Pehkusuonkatu,61.46625,23.82164
3130,3130,Lehtimetsänkatu,61.46725,23.82659
3131,3131,Kiulukatu,61.47150,23.81960
3132,3132,Kuusikonkatu,61.46639,23.83775
3133,3133,Perkkoonkatu,61.43740,23.75098
3134,3134,Hallila,61.46101,23.83070
3136,3136,Hallilan koulu,61.46439,23.83795
3138,3138,Havumetsänkatu,61.46219,23.83217
3141,3141,Havumetsänkatu,61.46234,23.83270
3142,3142,Korkinmäenkatu,61.47388,23.82494
3143,3143,Hallilan koulu,61.46461,23.83942
3144,3144,Kyläkeinunkatu,61.47257,23.82764
3145,3145,Kyläkeinunkatu,61.47267,23.82782
3147,3147,Korkinmäenkatu ,61.47385,23.82518
3158,3158,TAKK,61.46294,23.78586
3160,3160,Särkijärvenkatu,61.45973,23.78300
3161,3161,Särkijärvenkatu,61.46052,23.78059
3163,3163,TAKK,61.46290,23.78572
3165,3165,Perkiö,61.45546,23.78098
3166,3166,Lahdesjärvi,61.45736,23.78387
3167,3167,IKEA,61.45420,23.77243
3168,3168,Postitorvenkatu,61.45468,23.77521
3169,3169,Postitorvenkatu,61.45480,23.77047
3170,3170,Automiehenkatu 2,61.45490,23.76134
3172,3172,Lahdenperänkatu,61.47487,23.78429
3173,3173,Lahdenperänkatu,61.47525,23.78217
3200,3200,Muotialantie 64,61.47713,23.82027
3201,3201,Muotialantie 67,61.47694,23.82032
3500,3500,Viinikan liittymä,61.48974,23.78193
3502,3502,Iidesranta,61.49108,23.79002
3503,3503,Iidesranta,61.49113,23.79195
3504,3504,Kuikankatu,61.48953,23.79849
3505,3505,Kuikankatu,61.49007,23.79736
3507,3507,Tiirantaival,61.48772,23.80724
3508,3508,Tiirantaival,61.48752,23.80805
3509,3509,Järvensivun koulu,61.48751,23.81220
3510,3510,Järvensivun koulu,61.48732,23.81327
3511,3511,Vuohenoja,61.48589,23.82901
3512,3512,Vuohenoja,61.48580,23.82857
3513,3513,Turtola,61.47973,23.83114
3515,3515,Lukonmäki pohj.,61.46555,23.84253
3516,3516,Lukonmäki pohj.,61.46619,23.84170
3517,3517,Lukonmäki et.,61.46290,23.84406
3518,3518,Lukonmäki et.,61.46356,23.84298
3519,3519,Tieteenkatu,61.45791,23.84893
3520,3520,Insinöörinkatu,61.45440,23.84651
3523,3523,Hervantakeskus,61.45148,23.84887
3524,3524,Ahvenisjärvi ,61.44920,23.85062
3525,3525,Ahvenisjärvi,61.44883,23.85141
3526,3526,Sähkökatu,61.44718,23.84897
3527,3527,Valtaraitti,61.44705,23.84921
3528,3528,Ahvenisraitti,61.44591,23.84351
3529,3529,Ahvenisraitti,61.44591,23.84429
3530,3530,Teekkarinkatu,61.44482,23.83876
3531,3531,Teekkarinkatu,61.44466,23.83887
3532,3532,Pinni,61.49167,23.78263
3533,3533,Järvensivuntie 3,61.49170,23.78391
3534,3534,Järvensivuntie,61.49148,23.78773
3535,3535,Järvensivuntie 15,61.49155,23.78898
3536,3536,Kiurunpolku,61.49164,23.79590
3537,3537,Kiurunpolku,61.49172,23.79648
3538,3538,Peippospolku,61.49118,23.80123
3539,3539,Peippospolku,61.49122,23.80194
3540,3540,Kertunpolku,61.49045,23.80598
3541,3541,Kertunpolku,61.49055,23.80610
3542,3542,Pääskynpolku,61.48873,23.81356
3543,3543,Pääskynpolku,61.48890,23.81317
3545,3545,Järvensivu,61.48887,23.81764
3546,3546,Ratapihankatu,61.49279,23.77609
3547,3547,Ratapihankatu,61.49270,23.77689
3548,3548,Nuijatie,61.47628,23.84743
3549,3549,Nuijatie,61.47607,23.84764
3551,3551,Vasaratie 13,61.47418,23.84793
3552,3552,Vasaratie 12,61.47381,23.84855
3553,3553,Vasaratie 25,61.47291,23.85266
3554,3554,Vasaratie 22,61.47288,23.85200
3555,3555,Vasaratie 31,61.47276,23.85590
3556,3556,Kirvestie,61.47260,23.85738
3557,3557,Iidesaukio,61.49123,23.78538
3560,3560,Kierikankatu,61.46463,23.85507
3562,3562,Sotilaankatu,61.47903,23.83273
3563,3563,Turtola,61.47755,23.83994
3564,3564,Finninmäki,61.46490,23.86311
3565,3565,Finninmäki,61.46524,23.86411
3566,3566,Lukonmäki,61.46336,23.85769
3567,3567,Lukonmäki,61.46316,23.85739
3568,3568,Ammattikoulu,61.45854,23.85167
3569,3569,Ammattikoulu,61.45836,23.85152
3570,3570,Tieteenkatu,61.45713,23.84881
3574,3574,Valtaraitti,61.45313,23.84527
3575,3575,Valtaraitti,61.45274,23.84450
3576,3576,Opiskelijankatu 26,61.45132,23.83746
3577,3577,Opiskelijankatu 23,61.45144,23.83887
3578,3578,Hervannan lukio,61.45010,23.83222
3579,3579,Hervannan lukio,61.44985,23.83196
3580,3580,Ammattikoulu,61.45859,23.85463
3581,3581,Ammattikoulu,61.45869,23.85454
3583,3583,Santaharjuntie,61.47414,23.86408
3584,3584,Santaharjuntie,61.47392,23.86283
3585,3585,Lukonmäenkatu,61.46780,23.85321
3587,3587,Kierikankatu,61.46486,23.85535
3588,3588,Lukonmäenkatu,61.46740,23.85319
3589,3589,Steiner-koulu,61.47931,23.82686
3590,3590,Steiner-koulu,61.47919,23.82609
3598,3598,Länsi-Hervanta,61.44798,23.83508
3601,3601,Arkkitehdinkatu 36,61.44097,23.84704
3602,3602,Arkkitehdinkatu 17,61.44059,23.84622
3603,3603,Arkkitehdinkatu 14,61.44207,23.85196
3604,3604,Arkkitehdinkatu 9,61.44181,23.85150
3605,3605,Arkkitehdinkatu 4,61.44215,23.85807
3606,3606,Arkkitehdinkatu 3,61.44195,23.85792
3607,3607,Lavastajanpolku,61.44173,23.86961
3608,3608,Sonninottanlahti,61.44067,23.84400
3610,3610,Insinöörinkatu 60,61.44685,23.85345
3611,3611,Insinöörinkatu 41,61.44669,23.85414
3612,3612,Insinöörinkatu 82,61.44439,23.85687
3613,3613,Insinöörinkatu 55,61.44429,23.85658
3614,3614,Länsi-Hervanta,61.44799,23.83466
3615,3615,Etelä-Hervanta,61.44450,23.87235
3616,3616,Näyttämönkatu,61.44253,23.86358
3618,3618,Lavastajanpolku,61.44150,23.86791
3620,3620,Kanjoninkatu 4,61.45807,23.84400
3622,3622,Hervannan jäähalli,61.45633,23.83646
3624,3624,Muroleenkatu,61.45275,23.83658
3625,3625,Hervannan jäähalli,61.45621,23.83668
3627,3627,Kanjoninkatu 5,61.45793,23.84411
3629,3629,Muroleenkatu,61.45283,23.83688
3631,3631,Mäyränmäki,61.43287,23.83012
3632,3632,Mäyränmäki,61.43282,23.83071
3633,3633,Hermia,61.44960,23.87165
3635,3635,Vuoreksen koulu,61.43054,23.81566
3636,3636,Vuoreksen koulu,61.43044,23.81565
3637,3637,Näyttämönkatu,61.44273,23.86268
3638,3638,Vuoreskeskus,61.43174,23.80935
3639,3639,Vuoreskeskus,61.43182,23.80964
3640,3640,Rimmi,61.43425,23.80774
3641,3641,Rimmi,61.43426,23.80810
3642,3642,Hervantakeskus,61.45062,23.84924
3643,3643,Virolainen,61.43763,23.81218
3644,3644,Virolainen,61.43850,23.81154
3646,3646,Eero Roineen katu,61.44297,23.87260
3647,3647,Västinginmäki,61.45315,23.79918
3648,3648,Västinginmäki,61.45275,23.79977
3649,3649,Tuotekatu,61.45841,23.78685
3650,3650,Korkinmäenkatu,61.47437,23.82528
3651,3651,Korkinmäenkatu,61.47408,23.82416
3652,3652,Laulunmaankatu,61.47718,23.82732
3653,3653,Laulunmaankatu,61.47683,23.82674
3699,3699,Hervantakeskus,61.45063,23.84961
3701,3701,Hermiankatu ,61.45008,23.86954
3702,3702,Hermiankatu 8,61.44721,23.85821
3703,3703,Hermiankatu 3,61.44751,23.85895
3704,3704,Hermiankatu 20,61.44810,23.86208
3705,3705,Kauhakorvenkatu,61.45075,23.86981
3706,3706,Kauhakorvenkatu,61.45066,23.87014
3707,3707,Kytömaankatu,61.45454,23.86684
3708,3708,Kytömaankatu,61.45443,23.86713
3709,3709,Työpajanraitti,61.45734,23.86543
3710,3710,Työpajanraitti,61.45748,23.86555
3711,3711,Hepolamminkatu,61.45966,23.86381
3712,3712,Hepolamminkatu,61.45974,23.86397
3713,3713,Itä-Hervanta,61.46002,23.86865
3714,3714,Hermiankatu 22,61.44967,23.86956
3715,3715,Hermiankatu 7,61.44822,23.86207
3716,3716,Ahvenisraitti,61.44962,23.84382
3717,3717,Ahvenisraitti,61.44979,23.84381
3718,3718,Kanjoninkatu,61.45727,23.84523
3721,3721,Kanjoninkatu,61.45734,23.84552
3723,3723,Orivedenkatu,61.45539,23.84645
3727,3727,Kauhakorvenkatu 5,61.45190,23.87106
3728,3728,Hervannan valtaväylä,61.45788,23.84646
3729,3729,Shell Hervanta,61.45770,23.84734
3730,3730,Vaajakatu,61.45323,23.84982
3731,3731,Vaajakatu,61.45337,23.85046
3732,3732,Kylmäsuonkatu,61.45158,23.85199
3733,3733,Hervannan valtaväylä,61.45226,23.85193
3734,3734,TTY,61.44900,23.85376
3735,3735,TTY,61.44975,23.85422
3736,3736,Tieteenkatu 8,61.45501,23.84943
3737,3737,Tieteenkatu 7,61.45486,23.85018
3760,3760,Kotkansiipi,61.43973,23.84541
3761,3761,Kotkansiipi,61.43962,23.84517
3762,3762,Siltanen,61.43617,23.84438
3763,3763,Siltanen,61.43643,23.84508
3901,3901,Kuokkamaantie 2,61.48212,23.77737
3908,3908,Niittyhaankatu,61.45332,23.88224
3923,3923,Solkimäki,61.45307,23.88990
3924,3924,Solkimäki,61.45320,23.89002
3925,3925,Polunmäenkatu,61.45314,23.89516
3926,3926,Polunmäenkatu,61.45337,23.89353
3935,3935,Niittyhaankatu,61.45309,23.88380
3937,3937,Kauhakorvenkatu 2,61.45200,23.87257
3940,3940,Rusko,61.45312,23.90063
3941,3941,Rusko,61.45353,23.90164
3942,3942,Palvaanniemi,61.48563,23.82646
3943,3943,Palvaanniemi,61.48666,23.82649
3944,3944,Kissanmaa,61.49812,23.81517
3949,3949,TAMK,61.50274,23.80530
3950,3950,Laulunmaa,61.47796,23.83226
3951,3951,Laulunmaa,61.47653,23.83484
3999,3999,Puhhoonlahti,61.48762,23.82145
4000,4000,Tarkonpuisto,61.49502,23.79195
4001,4001,Tarkonpuisto,61.49518,23.79377
4002,4002,Kalevankangas,61.49496,23.79547
4003,4003,Takojankatu,61.49420,23.80112
4004,4004,Takojankatu,61.49407,23.80097
4005,4005,Kalevantie,61.49298,23.80567
4006,4006,Kalevantie,61.49284,23.80540
4007,4007,Tilhentie,61.49148,23.81040
4008,4008,Tilhentie,61.49133,23.81017
4010,4010,Vuohensilta,61.48648,23.82531
4011,4011,Vuohensilta,61.48677,23.82513
4012,4012,Messukylänkatu,61.48622,23.83422
4013,4013,Messukylänkatu,61.48647,23.83152
4014,4014,Aakkula,61.48606,23.83998
4015,4015,Aakkula,61.48633,23.83958
4016,4016,Kivikirkko,61.48467,23.84579
4017,4017,Kivikirkko,61.48497,23.84556
4018,4018,Messukylän kirkko,61.48346,23.85037
4019,4019,Messukylän kirkko,61.48384,23.84988
4020,4020,Etu-Hankkionkatu,61.47915,23.86128
4021,4021,Etu-Hankkionkatu,61.48018,23.85977
4022,4022,Vilunen,61.47815,23.86852
4023,4023,Vilunen,61.47860,23.86664
4024,4024,Juvankatu 4,61.47627,23.87378
4025,4025,Kirsikatu,61.47653,23.87426
4027,4027,Keskisenkatu,61.47403,23.87241
4028,4028,Keskisenkatu,61.47299,23.87122
4030,4030,Juvankatu 18,61.47039,23.86983
4031,4031,Juvankatu 13,61.47089,23.87053
4032,4032,Yrjöläntie,61.46836,23.86879
4033,4033,Yrjöläntie,61.46827,23.86914
4034,4034,Yrjöläntie,61.46735,23.86914
4035,4035,Vanha-Juva,61.46400,23.87726
4036,4036,Juvanrinne,61.46364,23.87700
4040,4040,Ojavainionkatu 4,61.46444,23.89426
4041,4041,Ojavainionkatu 5,61.46360,23.89439
4042,4042,Hikivuorenkatu 22,61.46572,23.89412
4043,4043,Hikivuorenkatu,61.46589,23.89386
4044,4044,Hikivuorenkatu 14,61.46591,23.88909
4045,4045,Annala,61.46417,23.91319
4046,4046,Hankkio,61.47734,23.87600
4047,4047,Hankkio,61.47763,23.87620
4048,4048,Haiharansuu,61.47662,23.88424
4049,4049,Yrittäjänkatu,61.47694,23.88198
4050,4050,Juvelankatu 19,61.47561,23.91660
4051,4051,Seimenkatu,61.47755,23.91966
4052,4052,Kristilla,61.47597,23.89751
4053,4053,Kristilla,61.47620,23.89604
4054,4054,Vehmaistenkatu 4,61.47681,23.90659
4055,4055,Vehmaistenkatu,61.47574,23.90476
4056,4056,Inolankatu,61.47967,23.90781
4058,4058,Kangasalantie 120,61.47427,23.91897
4060,4060,Vehmainen,61.47376,23.92370
4065,4065,Juvelankatu,61.47646,23.90925
4072,4072,Keskisenkatu 6,61.47323,23.87305
4073,4073,Keskisenkatu 13,61.47287,23.87728
4074,4074,Keskisenkatu 22,61.47261,23.87839
4076,4076,Haiharankatu,61.47196,23.88392
4077,4077,Haiharankatu,61.47198,23.88424
4078,4078,Kaukajärvi,61.47075,23.88934
4079,4079,Keskisenkatu,61.47327,23.87485
4080,4080,Kyläojankatu,61.48478,23.85243
4081,4081,Kyläojankatu,61.48408,23.85066
4082,4082,Pitkäniitynkatu,61.46229,23.90394
4083,4083,Solkiniitynkatu,61.45632,23.90402
4084,4084,Levonmäki,61.46187,23.90557
4085,4085,Levonmäki,61.46167,23.90584
4086,4086,Solkiniitynkatu,61.45607,23.90356
4087,4087,Pitkäniitty,61.46258,23.90288
4088,4088,Vaunukatu,61.47939,23.92062
4089,4089,Juvankatu,61.46314,23.89351
4091,4091,Vaunukatu,61.47966,23.92188
4096,4096,Hikivuori,61.46687,23.88537
4097,4097,Juvankatu 39,61.46338,23.88662
4099,4099,Maustekatu,61.46473,23.90935
4100,4100,Kauppilaisenkatu 20,61.47806,23.91439
4102,4102,Kaukajärventie,61.47702,23.91838
4104,4104,Levonmäki,61.46468,23.90719
4106,4106,Juvankatu 46,61.46319,23.88778
4108,4108,Juvankatu 52,61.46295,23.89533
4112,4112,Vehmaistenkatu,61.47535,23.90788
4115,4115,Aukionkatu,61.47401,23.92718
4116,4116,Aukionkatu,61.47376,23.92691
4117,4117,Kaukajärventie,61.47482,23.91674
4418,4418,Leinolankatu 122,61.48354,23.90682
4430,4430,Kaipanen,61.45946,23.91128
4432,4432,Lorukorvenkatu,61.46055,23.91100
4433,4433,Lorukorvenkatu,61.46160,23.91110
4500,4500,Sampola,61.49849,23.78973
4501,4501,Kalevan kirkko,61.49850,23.79068
4502,4502,Kaalamonaukio,61.49777,23.79435
4503,4503,Sammonkatu 13,61.49772,23.79601
4504,4504,Sammonkatu 26,61.49722,23.79749
4505,4505,Uintikeskus,61.49660,23.80294
4506,4506,Uintikeskus,61.49610,23.80424
4507,4507,Sammonkatu 43,61.49553,23.80818
4514,4514,Sammonkatu 56,61.49499,23.80948
4515,4515,Sammonkatu 45,61.49427,23.81459
4516,4516,Sammonkatu 66,61.49357,23.81624
4517,4517,Sammonkatu 47,61.49321,23.81861
4518,4518,Sarvijaakonkatu ,61.49275,23.81980
4519,4519,Hakametsä,61.49358,23.82689
4520,4520,Hakametsä,61.49330,23.82856
4521,4521,Sammon valtatie,61.49326,23.83707
4522,4522,Sammon vt 10,61.49296,23.83851
4523,4523,Irjalankatu,61.49273,23.84304
4524,4524,Irjalankatu,61.49224,23.84437
4525,4525,Takahuhdin koulu,61.49140,23.84893
4526,4526,Takahuhdin koulu,61.49092,23.84950
4527,4527,Ristinarkku,61.48911,23.85776
4529,4529,Kässälä,61.48884,23.86292
4530,4530,Kässälä,61.48872,23.86483
4531,4531,Paloasema,61.48976,23.87662
4532,4532,Paloasema,61.49043,23.87809
4533,4533,Jussilankulma,61.48928,23.88354
4534,4534,Leinolankatu 18,61.48924,23.88148
4536,4536,Kotipellonkatu,61.48835,23.88895
4537,4537,Linnainmaankatu,61.48847,23.88946
4538,4538,Leinolankatu 72,61.48800,23.89486
4539,4539,Leinolankatu 69,61.48824,23.89407
4540,4540,Leinolankatu 90,61.48693,23.89908
4541,4541,Leinolankatu 95,61.48688,23.89956
4542,4542,Mikkola,61.48406,23.90602
4543,4543,Mikkola,61.48491,23.90507
4544,4544,Vestonkatu 24,61.48238,23.91300
4545,4545,Vestonkatu 11,61.48271,23.91136
4546,4546,Vestonkatu,61.48163,23.92023
4547,4547,Vestonkatu 35,61.48196,23.91904
4550,4550,Tilkankatu,61.49046,23.92289
4551,4551,Raudikonkatu,61.49092,23.92230
4552,4552,Orimuskatu,61.48454,23.92924
4553,4553,Orimuskatu,61.48467,23.92891
4556,4556,Ristinarkuntie,61.48919,23.85559
4557,4557,Vehnämyllynkatu,61.48759,23.85452
4558,4558,Vehnämyllynkatu,61.48695,23.85411
4559,4559,Aitolahdentie 27,61.49137,23.87931
4563,4563,Mäentakusenkatu,61.49647,23.89199
4564,4564,Kissanmaa,61.49791,23.81480
4565,4565,Jäähalli,61.49545,23.82065
4566,4566,Jäähalli,61.49525,23.82001
4567,4567,Leinola,61.49021,23.92275
4568,4568,Leinolankatu 8,61.48972,23.87882
4569,4569,Janka,61.48748,23.84891
4571,4571,Hussankatu,61.49254,23.91885
4572,4572,Mäentakusenkatu,61.49587,23.89440
4573,4573,Leinolan koulu,61.49342,23.91279
4574,4574,Pikkupiiankatu,61.49793,23.89925
4575,4575,Piettasenristi,61.49393,23.90904
4576,4576,Piettasenkatu 28,61.49731,23.90581
4577,4577,Piettasenkatu,61.49749,23.90510
4578,4578,Leinolan koulu,61.49339,23.91334
4579,4579,Pikkupiiankatu,61.49799,23.89819
4580,4580,Hussankatu,61.49206,23.91945
4581,4581,Monttilanpolku,61.48883,23.84406
4582,4582,Alasniitynkatu,61.49053,23.84336
4583,4583,Jankanraitti,61.49089,23.84424
4584,4584,Monttilanpolku,61.48862,23.84446
4585,4585,Lahtomäenkatu 7,61.49457,23.88782
4588,4588,Piettasenristi,61.49431,23.90893
4589,4589,Orelmankatu,61.48681,23.92878
4590,4590,Ilmattarenkatu,61.48624,23.92853
4600,4600,Vatiala,61.47654,23.97763
4602,4602,Vatiala,61.47623,23.97766
4903,4903,Romsinlahti,61.51302,23.78152
4951,4951,Kuntokatu,61.50423,23.81043
5000,5000,Kalevan kirkko,61.49997,23.79288
5001,5001,Teiskontie 13,61.50049,23.79367
5003,5003,Teiskontie 25,61.50169,23.79979
5004,5004,Teiskontie 24,61.50147,23.80073
5005,5005,TAMK,61.50245,23.80620
5006,5006,TAMK,61.50224,23.80793
5007,5007,TAYS,61.50311,23.81256
5008,5008,TAYS,61.50279,23.81312
5009,5009,Kissanmaankatu 7,61.50145,23.81673
5010,5010,Kissanmaankatu 8,61.50152,23.81633
5014,5014,Naistenlahti,61.50860,23.77774
5015,5015,Naistenlahti,61.50856,23.77733
5016,5016,Kaupin sairaala,61.50895,23.78735
5017,5017,Lapinniemen kylpylä,61.51039,23.77767
5018,5018,Lapinniemen kylpylä,61.51054,23.77803
5019,5019,Koukkuniemi,61.51221,23.77880
5020,5020,Koukkuniemi,61.51199,23.77878
5021,5021,Rauhaniemi,61.51267,23.78490
5022,5022,Saukkola,61.50476,23.78720
5023,5023,Kaupin sairaala,61.50714,23.78720
5024,5024,Veljeskoti,61.50775,23.79103
5025,5025,Veljeskoti,61.50766,23.79023
5026,5026,Koljontie 62,61.50763,23.80119
5027,5027,Koljontie 29,61.50837,23.79335
5028,5028,Koljontie 74,61.50682,23.80391
5029,5029,Koljontie 31,61.50793,23.80024
5030,5030,Petsamo,61.50500,23.80090
5038,5038,Perhetukikeskus,61.50425,23.82295
5039,5039,Hoitokoti,61.50477,23.82475
5040,5040,Hoitokoti,61.50468,23.82663
5041,5041,Ali-Huikkaantie,61.50577,23.83307
5042,5042,Ali-Huikkaantie,61.50566,23.83504
5043,5043,Tenniskeskus,61.50559,23.84448
5044,5044,Tenniskeskus,61.50522,23.84563
5048,5048,Koilliskeskus,61.49708,23.88734
5055,5055,Irjala,61.50004,23.86465
5057,5057,Huikkaanaukio,61.49543,23.83927
5058,5058,Huikkaanaukio,61.49543,23.83948
5061,5061,Takahuhdintie 19,61.49765,23.82646
5062,5062,Takahuhdintie 20,61.49733,23.82749
5063,5063,Takahuhdintie 37,61.49655,23.83202
5064,5064,Takahuhdintie 46,61.49644,23.83199
5065,5065,Huikkaanaukio,61.49534,23.83806
5066,5066,Huikkaanaukio,61.49518,23.83815
5067,5067,Takahuhdintie 65,61.49340,23.84790
5068,5068,Takahuhdintie 86,61.49338,23.84758
5069,5069,Takahuhdin koulu,61.49140,23.85563
5070,5070,Takahuhdin koulu,61.49078,23.85592
5071,5071,Ristinarkku,61.49032,23.85805
5073,5073,Tanhuankatu 39,61.49149,23.86307
5074,5074,Tanhuankatu 40,61.49155,23.86351
5075,5075,Tanhuankatu 59,61.49417,23.86450
5076,5076,Tanhuankatu 48,61.49441,23.86454
5077,5077,Luhtaankatu,61.49667,23.86987
5078,5078,Luhtaankatu 8,61.49672,23.87039
5079,5079,Pienkodit,61.49893,23.87436
5080,5080,Pienkodit,61.49845,23.87439
5081,5081,Koilliskeskus,61.49631,23.88855
5082,5082,Atalankatu,61.50215,23.89881
5083,5083,Nikinväylä 36,61.50205,23.92062
5085,5085,Atanpuisto,61.50042,23.89297
5086,5086,Atanpuisto,61.50062,23.89419
5087,5087,Aitolahdentie 75,61.50235,23.89884
5088,5088,Atanväylä,61.50494,23.90466
5089,5089,Atanväylä,61.50465,23.90320
5090,5090,Nikki,61.50613,23.90933
5091,5091,Nikinväylä,61.50894,23.91398
5092,5092,Nikinväylä ,61.50952,23.91522
5093,5093,Ahola,61.51144,23.91898
5094,5094,Ahola,61.51156,23.92007
5095,5095,Kumpula,61.51559,23.92947
5096,5096,Ali-Huikkaantie 24,61.49806,23.83858
5097,5097,Kolarinkatu,61.49809,23.84710
5098,5098,Lautasenkatu,61.50004,23.83792
5099,5099,Lautasenkatu,61.49997,23.83772
5100,5100,Kuusimäenrinne,61.50026,23.84478
5101,5101,Irjalanaukio,61.49510,23.84936
5104,5104,Kolarinkatu,61.49784,23.84700
5106,5106,Irjalankatu,61.49499,23.85018
5108,5108,Irjalankatu,61.49702,23.85381
5109,5109,Irjalankatu 29,61.49717,23.85390
5110,5110,Linnahaankatu,61.49911,23.85796
5111,5111,Linnahaankatu,61.49896,23.85769
5112,5112,Hippoksenkatu,61.49921,23.81953
5113,5113,Hippoksenkatu,61.49871,23.82049
5114,5114,Kuntokatu,61.50447,23.80988
5116,5116,Irjalankatu,61.50322,23.86154
5117,5117,Teiskontie 61,61.50344,23.86195
5118,5118,Pienkodit,61.50033,23.87426
5119,5119,Pienkodit,61.50034,23.87569
5120,5120,Kirjavaisenkatu ,61.50026,23.85880
5121,5121,Kirjavaisenkatu 5,61.50071,23.86059
5123,5123,Koilliskeskus,61.49606,23.88478
5124,5124,Koilliskeskus,61.49711,23.88668
5125,5125,Aitolahdentie 43,61.49403,23.88244
5126,5126,Aitolahdentie 36,61.49453,23.88337
5127,5127,Keilakuja,61.50658,23.80919
5128,5128,Koilliskeskus,61.49611,23.88851
5129,5129,Atanväylä 19,61.50165,23.91427
5130,5130,Mäennotkonkatu,61.49367,23.90148
5131,5131,Aitolahdentie 95,61.50645,23.90968
5132,5132,Aitoniitynkatu,61.49313,23.90722
5134,5134,Itäinen aluetoimisto,61.49912,23.91585
5135,5135,Lusankatu 15,61.50656,23.80139
5136,5136,Orimuskatu 80,61.50085,23.91578
5137,5137,Kuusenmäenrinne,61.50076,23.84324
5139,5139,Ali-Huikkaantie 21,61.49853,23.83821
5141,5141,Orimuskatu 81,61.50083,23.91559
5143,5143,Aitoniitynkatu,61.49326,23.90732
5145,5145,Tuluskatu,61.49481,23.89886
5180,5180,Paloniityntie,61.51587,23.93230
5196,5196,Koljontie 30,61.50822,23.79310
5198,5198,Kaupinkatu,61.50837,23.79585
5200,5200,Kumpula,61.51501,23.92817
5201,5201,Aitolahdentie 145,61.51740,23.94174
5202,5202,Kolmala,61.51705,23.94053
5203,5203,Kolmala,61.51674,23.93712
5204,5204,Ojala,61.51866,23.94647
5205,5205,Olkahinen,61.52247,23.95055
5206,5206,Olkahinen,61.52234,23.95071
5207,5207,Lennosto,61.52576,23.95431
5208,5208,Lennosto,61.52693,23.95447
5209,5209,Vastarannankatu,61.52955,23.95301
5210,5210,Vastarannankatu,61.53089,23.95309
5211,5211,Lintukalliontie,61.53768,23.94153
5212,5212,Lintukalliontie,61.53837,23.94142
5213,5213,Heinontie,61.54244,23.93955
5214,5214,Rauhalantie,61.54410,23.93943
5215,5215,Sorilanjoenahde,61.54808,23.93832
5216,5216,Kantapartolantie,61.54849,23.93881
5217,5217,Sorila,61.55465,23.93585
5218,5218,Sorila,61.55509,23.93549
5220,5220,Vt9 ramppi,61.53211,23.95225
5221,5221,Sorilan koulu,61.55522,23.93163
5248,5248,Kelkkakatu,61.50145,23.91410
5249,5249,Atala,61.50789,23.92032
5250,5250,Metsästäjänkatu,61.50367,23.90554
5251,5251,Ahkionkatu,61.50634,23.92414
5252,5252,Kaupin sairaala,61.50699,23.78774
5253,5253,UKK-instituutti,61.51336,23.80690
5257,5257,Pulkkakatu,61.50897,23.91554
5259,5259,Metsästäjänkatu,61.50363,23.90590
5260,5260,Nikinväylä,61.50187,23.91983
5262,5262,Ahkionkatu,61.50631,23.92437
5264,5264,Atala,61.50798,23.91936
5266,5266,Risso,61.49856,23.93136
5270,5270,Rissonkatu,61.49887,23.91725
5271,5271,Rissonkatu,61.49900,23.91724
5272,5272,Petäjässuonkatu,61.49847,23.92742
5273,5273,Petäjässuonkatu,61.49849,23.92648
5303,5303,Kiviojantie,61.55820,23.92635
5304,5304,Kiviojantie,61.55871,23.92483
5305,5305,Eerolansuora th,61.56265,23.90815
5308,5308,Eerolansuora th,61.56300,23.90523
5309,5309,Vähäranta,61.57284,23.88385
5310,5310,Vähäranta,61.57341,23.88340
5311,5311,Vääräjärvi,61.57910,23.87020
5312,5312,Vääräjärvi,61.57982,23.86987
5313,5313,Eerola,61.58506,23.86860
5314,5314,Eerola,61.58595,23.86891
5315,5315,Urponmaa,61.59262,23.86990
5316,5316,Urponmaa,61.59312,23.87035
5317,5317,Nokiniitty,61.59658,23.87081
5318,5318,Nokiniitty,61.59649,23.87101
5319,5319,Kannisto,61.59972,23.87140
5320,5320,Kannisto,61.60014,23.87179
5321,5321,Kolunkylä,61.60246,23.87196
5322,5322,Kolunkylä,61.60356,23.87330
5324,5324,Nuorajärvi,61.60702,23.87497
5325,5325,Nuorajärvi,61.60803,23.87534
5326,5326,Iso-Kartano,61.61518,23.87675
5327,5327,Iso-Kartano,61.61448,23.87648
5328,5328,Värmälä,61.62242,23.86920
5329,5329,Värmälä,61.62204,23.86926
5330,5330,Salama,61.62638,23.86269
5331,5331,Salama,61.62580,23.86433
5332,5332,Mutikonlahti,61.62666,23.85258
5333,5333,Mutikonlahti,61.62631,23.85377
5334,5334,Mikkolanniemi,61.62611,23.84692
5335,5335,Mikkolanniemi,61.62609,23.84823
5336,5336,Paavola th,61.62834,23.83975
5337,5337,Paavola th,61.62772,23.84055
5338,5338,Kämmenniemi,61.62973,23.83821
5339,5339,Kämmenniemi,61.62964,23.83803
5340,5340,Aunessilta,61.63236,23.83810
5341,5341,Aunessilta,61.63250,23.83731
5342,5342,Koivuniemi,61.63419,23.82796
5343,5343,Koivuniemi,61.63368,23.82817
5344,5344,Kuusjärvi th,61.63897,23.82509
5345,5345,Kuusjärvi th,61.63791,23.82567
5346,5346,Ripojärvi,61.64328,23.82116
5347,5347,Ripojärvi,61.64267,23.82131
5348,5348,Ripovuoret,61.64812,23.81883
5349,5349,Ripovuoret,61.64746,23.81824
5350,5350,Taulaniemi th,61.65287,23.82049
5351,5351,Taulaniemi th,61.65215,23.82011
5352,5352,Poukka,61.65962,23.82084
5353,5353,Poukka,61.65903,23.82041
5354,5354,Toijakylä,61.66326,23.82292
5355,5355,Toijakylä,61.66257,23.82208
5356,5356,Mäkelänmaa,61.66863,23.82656
5357,5357,Mäkelänmaa,61.66784,23.82568
5358,5358,Teiskola,61.67461,23.83018
5359,5359,Teiskola,61.67387,23.82928
5360,5360,Teisko kko th,61.67921,23.83234
5361,5361,Teisko kko th,61.67838,23.83089
5362,5362,Maisansalo,61.69148,23.82550
5363,5363,Maisansalo th,61.68391,23.84395
5364,5364,Maisansalo th,61.68444,23.84602
5365,5365,Torpparinsuo,61.68807,23.85771
5366,5366,Torpparinsuo,61.68745,23.85681
5367,5367,Tuhkuri,61.69425,23.87189
5368,5368,Tuhkuri,61.69453,23.87316
5369,5369,Uusi-Koverontie,61.69949,23.89021
5370,5370,Uusi-Koverontie,61.69978,23.89121
5371,5371,Terveystalo,61.70370,23.89766
5372,5372,Terveystalo,61.70421,23.89825
5373,5373,Terälahti,61.70702,23.89958
5374,5374,Terälahti,61.70759,23.90018
5375,5375,Terämaa,61.71107,23.90441
5376,5376,Terämaa,61.71098,23.90453
5377,5377,Etelä,61.73307,23.91383
5378,5378,Etelä,61.73228,23.91364
5379,5379,Eteläpohja,61.73853,23.91627
5380,5380,Eteläpohja,61.73895,23.91680
5381,5381,Velaatta,61.74511,23.92044
5382,5382,Velaatta,61.74485,23.92049
5383,5383,Salmensilta,61.74725,23.92360
5384,5384,Salmensilta,61.74740,23.92429
5385,5385,Särkänperä,61.75652,23.94771
5386,5386,Särkänperä,61.75671,23.94867
5387,5387,Ilvesjoki,61.76149,23.95769
5388,5388,Ilvesjoki,61.76166,23.95847
5389,5389,Murole th,61.76969,23.97842
5390,5390,Murole th,61.76989,23.97937
5391,5391,Kaanaa,61.77360,23.98749
5392,5392,Kaanaa,61.77408,23.98900
5393,5393,Mäntylä,61.78218,24.00524
5394,5394,Mäntylä,61.78270,24.00689
5400,5400,Sorilan koulu,61.55469,23.93057
5401,5401,Sorilan koulu,61.55483,23.93146
5402,5402,Jokivalkamantie,61.55430,23.92737
5403,5403,Jokivalkamantie,61.55421,23.92808
5404,5404,Hirsimoisio,61.55276,23.91740
5405,5405,Hirsimoisio,61.55244,23.91551
5406,5406,Tervasuontie,61.55126,23.91053
5407,5407,Tervasuontie,61.55115,23.91044
5408,5408,Laalahti,61.54781,23.90447
5409,5409,Laalahti,61.54791,23.90534
5410,5410,Aitolahti kko,61.54530,23.89125
5411,5411,Aitolahti kko,61.54489,23.89008
5412,5412,Ruokosenraitti,61.54359,23.88453
5413,5413,Ruokosenraitti,61.54384,23.88608
5414,5414,Ruokonen,61.54217,23.87767
5415,5415,Ruokonen,61.54226,23.87888
5416,5416,Pättinniemi th,61.54124,23.86860
5417,5417,Pättinniemi th,61.54106,23.86790
5418,5418,Lampu,61.53836,23.85463
5419,5419,Lampu,61.53844,23.85439
5420,5420,Diabeteskeskus,61.53617,23.84051
5421,5421,Hirviniemi th,61.54231,23.86559
5422,5422,Hirviniemi th,61.54252,23.86567
5425,5425,Aitoniemi,61.56371,23.82688
5600,5600,Teisko kko th,61.67809,23.83453
6000,6000,Palstatie,61.52553,23.62378
6001,6001,Palstatie,61.52536,23.62346
6002,6002,Hatolantie,61.52583,23.61741
6003,6003,Hatolantie,61.52568,23.61754
6004,6004,Kaivokuja,61.52502,23.61403
6005,6005,Kaivokuja,61.52487,23.61414
6006,6006,Kallenkuja,61.52734,23.60720
6007,6007,Kallenkuja,61.52675,23.60779
6008,6008,Käyräkuja,61.52917,23.60167
6009,6009,Käyräkuja,61.52894,23.60292
6010,6010,Tanhuatie,61.53023,23.59732
6011,6011,Tanhuatie,61.53021,23.59697
6012,6012,Särkitie,61.53243,23.60049
6013,6013,Särkitie,61.53230,23.59969
6014,6014,Pohjanpolku,61.53460,23.60317
6015,6015,Pohjanpolku,61.53420,23.60233
6016,6016,Harjutie,61.53735,23.60386
6017,6017,Harjutie,61.53685,23.60364
6018,6018,Tornitie,61.53966,23.60242
6019,6019,Tornitie,61.53924,23.60234
6020,6020,Erkontie,61.54604,23.59288
6021,6021,Erkontie,61.54559,23.59293
6025,6025,Ylöjärvi Matkatie,61.54869,23.59801
7000,7000,Karhumäki,61.47020,23.72092
7001,7001,Karhumäki,61.46994,23.71974
7002,7002,Pakkalankulma,61.47001,23.70977
7003,7003,Pakkalankulma,61.46990,23.71288
7004,7004,Hannunpolku,61.47080,23.69740
7005,7005,Hannunpolku,61.47058,23.69801
7006,7006,Nuolialan koulu,61.47010,23.68884
7007,7007,Nuolialan koulu,61.47001,23.68960
7008,7008,Loukonlahti,61.46926,23.68279
7009,7009,Killo,61.46927,23.68410
7010,7010,Haikka,61.46893,23.66869
7011,7011,Haikka,61.46867,23.66973
7012,7012,Kurikka,61.46747,23.65673
7013,7013,Kurikka,61.46737,23.65770
7014,7014,Kuntakeskus,61.46606,23.64778
7015,7015,Kuntakeskus,61.46590,23.64734
7016,7016,Suupantori,61.46559,23.64216
7017,7017,Suupantori,61.46546,23.64219
7018,7018,Terveyskeskus,61.46273,23.63980
7019,7019,Tommila,61.46338,23.64052
7020,7020,Nuijamiehentie,61.45539,23.64119
7021,7021,Pirkkalan jäähalli,61.45618,23.64195
7022,7022,Teollisuustie,61.44799,23.63769
7023,7023,Vaitti,61.44848,23.63875
7024,7024,Heikkiläntie,61.44509,23.63386
7025,7025,Keskisentie,61.44534,23.63460
7026,7026,Koivisto,61.43899,23.63110
7027,7027,Koivisto,61.43966,23.63169
7028,7028,Lasikaari,61.43441,23.62775
7029,7029,Lasikaari,61.43487,23.62875
7030,7030,Sorkkala,61.43032,23.62066
7031,7031,Sorkkala,61.43045,23.62164
7032,7032,Pauni,61.42624,23.61283
7033,7033,Pauni,61.42657,23.61354
7035,7035,Lentoasema,61.42064,23.61443
7036,7036,Niemenmaa,61.46702,23.64028
7037,7037,Ollila,61.46671,23.64140
7038,7038,Perkiöntie,61.46702,23.62858
7039,7039,Perkiöntie,61.46672,23.62914
7040,7040,Kyösti,61.46754,23.61921
7041,7041,Kyösti,61.46739,23.62088
7042,7042,Turri,61.46686,23.60943
7043,7043,Turri,61.46691,23.61066
7046,7046,Kunnan varasto,61.46208,23.61436
7048,7048,Kyöstinpolku,61.46019,23.61928
7049,7049,Kyöstinpolku,61.46042,23.61891
7050,7050,Vasamapolku,61.45913,23.62360
7051,7051,Vasamapolku,61.45945,23.62339
7052,7052,Valimotie,61.45406,23.62583
7053,7053,Valimotie,61.45459,23.62516
7054,7054,Ahvenistontie,61.45040,23.63201
7055,7055,Metallitie,61.45064,23.63202
7057,7057,Teollisuustie,61.44885,23.63584
7060,7060,Kyösti,61.46658,23.62164
7070,7070,Koulukeskus,61.46082,23.64440
7071,7071,Koulukeskus,61.46120,23.64396
7072,7072,Puuhkalakki,61.45935,23.64887
7073,7073,Puuhkalakki,61.45980,23.64813
7074,7074,Hakatie,61.45727,23.65280
7075,7075,Hakatie,61.45797,23.65195
7076,7076,Sienimetsäntie,61.45596,23.65806
7077,7077,Sienimetsäntie,61.45560,23.65902
7078,7078,Erämiehentie,61.45270,23.66027
7079,7079,Erämiehentie,61.45269,23.66053
7080,7080,Amiraali,61.45173,23.65876
7081,7081,Amiraali,61.45162,23.65903
7082,7082,Kirjosiipi,61.45257,23.65095
7083,7083,Kirjosiipi,61.45224,23.65114
7084,7084,Hopeatäplä,61.45362,23.64784
7085,7085,Hopeatäplä,61.45366,23.64733
7086,7086,Pirkkalan jäähalli,61.45650,23.64257
7090,7090,Kukkulantie,61.46594,23.65973
7091,7091,Kukkulantie,61.46510,23.66029
7092,7092,Aittokorventie,61.46344,23.66679
7093,7093,Aittokorventie,61.46303,23.66699
7094,7094,Prunnintie,61.46055,23.67298
7095,7095,Prunnintie,61.46020,23.67302
7096,7096,Linnakallio,61.45507,23.69038
7097,7097,Linnakallio,61.45341,23.69512
7100,7100,Ryttylänmäki,61.46379,23.60126
7101,7101,Ryttylänmäki,61.46432,23.60279
7114,7114,Kirkonkylän koulu,61.45990,23.59216
7116,7116,Tanila,61.46033,23.58671
7117,7117,Tanila,61.46020,23.58761
7118,7118,Koiso,61.46035,23.57862
7119,7119,Koiso,61.46021,23.57719
7120,7120,Vanhakirkko,61.45868,23.56594
7121,7121,Vanhakirkko,61.45868,23.56651
7122,7122,Kranaatinmäki,61.45265,23.55874
7123,7123,Kranaatinmäki,61.45232,23.55874
7124,7124,Reippi,61.44955,23.55909
7125,7125,Reippi,61.44986,23.55896
7126,7126,Pehula,61.44179,23.56140
7127,7127,Pehula,61.44221,23.56179
7128,7128,Jyrkänpää,61.43811,23.55947
7129,7129,Jyrkänpää,61.43763,23.55946
7130,7130,Hiidenmaa,61.43353,23.55613
7131,7131,Hiidenmaa,61.43409,23.55706
7132,7132,Toppari,61.42552,23.54694
7133,7133,Toppari,61.42601,23.54801
7134,7134,Hahmo,61.41940,23.54376
7135,7135,Hahmo,61.41990,23.54428
7136,7136,Laitalemmi,61.41721,23.54195
7137,7137,Laitalemmi,61.41758,23.54265
7138,7138,Einola,61.41294,23.53917
7139,7139,Einola,61.41325,23.53981
7140,7140,Kranstolppa,61.40776,23.53948
7141,7141,Kranstolppa,61.40819,23.53947
7142,7142,Hongisto,61.40171,23.54264
7143,7143,Hongisto,61.40214,23.54334
7144,7144,Äijälä,61.39178,23.53853
7145,7145,Äijälä,61.39213,23.53849
7146,7146,Harkote,61.38621,23.54295
7147,7147,Harkote,61.38676,23.54347
7148,7148,Daavid,61.38139,23.54047
7149,7149,Daavid,61.38208,23.54060
7150,7150,Höökinmäki,61.37497,23.55866
7151,7151,Höökinmäki,61.37524,23.55762
7160,7160,Sorkkala,61.43157,23.62241
7161,7161,Sorkkala,61.43135,23.62263
7162,7162,Hyrsingin koulu,61.43415,23.61563
7163,7163,Hyrsingin koulu,61.43374,23.61601
7165,7165,Hyrsinki,61.43693,23.61026
7166,7166,Lintumäki,61.44008,23.60705
7167,7167,Lintumäki,61.43980,23.60674
7168,7168,Järviniitty,61.44393,23.60155
7169,7169,Järviniitty,61.44384,23.60129
7170,7170,Sionkylä,61.44752,23.59748
7171,7171,Sionkylä,61.44741,23.59723
7172,7172,Isolammi,61.45182,23.59310
7173,7173,Isolammi,61.45159,23.59315
7174,7174,Valkila,61.45721,23.58262
7175,7175,Valkila,61.45715,23.58242
7500,7500,Marjamäenkatu,61.43399,23.74946
7501,7501,Marjamäenkatu,61.43412,23.74980
7503,7503,Rajasilta,61.42780,23.75305
7504,7504,Rajasilta,61.42730,23.75269
7505,7505,Lampipolku,61.42519,23.75330
7506,7506,Lampipolku,61.42388,23.75282
7507,7507,Vikkiniitty,61.42176,23.75342
7508,7508,Vikkiniitty,61.42155,23.75302
7509,7509,Karhumäki,61.41878,23.75528
7510,7510,Karhumäki,61.41775,23.75616
7511,7511,Sääksjärven koulu,61.41567,23.75939
7512,7512,Sääksjärven koulu,61.41473,23.75997
7513,7513,Kurjentaival,61.41085,23.76186
7514,7514,Kurjentaival,61.40977,23.76148
7515,7515,Ahonperä,61.40492,23.76332
7516,7516,Ahonperä,61.40411,23.76308
7517,7517,Kukonkivi,61.40144,23.76547
7518,7518,Kukonkivi,61.40004,23.76671
7519,7519,Saviahde,61.39730,23.77235
7520,7520,Saviahde,61.39827,23.77037
7521,7521,Veräjätausta,61.39201,23.77774
7522,7522,Veräjätausta,61.39144,23.77743
7523,7523,Kuljun työväentalo,61.38757,23.78165
7524,7524,Kuljun työväentalo,61.38785,23.78113
7525,7525,Kuljun asematie,61.38337,23.78056
7526,7526,Kuljun asematie,61.38306,23.77992
7527,7527,Kuljun kartano,61.38000,23.77956
7528,7528,Kuljun kartano,61.38100,23.77933
7529,7529,Kuljun koulu,61.37728,23.77681
7530,7530,Kuljun koulu,61.37654,23.77556
7531,7531,Kukkolanmäki,61.37296,23.77686
7532,7532,Kukkolanmäki,61.37335,23.77577
7533,7533,Itkukallio,61.36659,23.78070
7534,7534,Itkukallio,61.36610,23.77966
7535,7535,Ruskea-ahde,61.36063,23.77882
7536,7536,Ruskea-ahde,61.36089,23.77812
7537,7537,Lohikallio,61.35680,23.77821
7538,7538,Lohikallio,61.35640,23.77728
7539,7539,Hattulanmäki,61.35172,23.77205
7540,7540,Hattulanmäki,61.35230,23.77177
7541,7541,Moisionjoki,61.35032,23.76698
7542,7542,Moisionjoki,61.35037,23.76589
7543,7543,Moision koulu,61.34583,23.75744
7544,7544,Moision koulu,61.34607,23.75700
7545,7545,Pysäkkitie,61.33983,23.75411
7546,7546,Pysäkkitie,61.34075,23.75377
7547,7547,Hakkari,61.33602,23.75174
7548,7548,Hakkari,61.33586,23.75049
7549,7549,Kuokkala,61.33221,23.74985
7550,7550,Kuokkala,61.33186,23.74909
7551,7551,Majauslahti,61.32596,23.74914
7552,7552,Majauslahti,61.32537,23.74798
7553,7553,Harakkala,61.32371,23.74847
7554,7554,Harakkala,61.32335,23.74791
7555,7555,Lempäälän työväentalo,61.32037,23.74908
7556,7556,Lempäälän työväentalo,61.32083,23.74810
7557,7557,Lempäälän terveyskeskus,61.31778,23.75085
7558,7558,Lempäälän terveyskeskus,61.31737,23.75048
7559,7559,Lempäälä,61.31429,23.75268
7560,7560,Lempäälä,61.31460,23.75218
7561,7561,Kuokatinmäki,61.31169,23.75338
7562,7562,Kuokatinmäki,61.31168,23.75295
7563,7563,Kanava,61.30820,23.75253
7564,7564,Kanava,61.30857,23.75221
7565,7565,Sulkola,61.30570,23.75058
7566,7566,Sulkola,61.30433,23.74873
7567,7567,Toimintakeskus,61.30336,23.74739
7568,7568,Toimintakeskus,61.30346,23.74559
7569,7569,Sitarinkuja,61.30454,23.74196
7570,7570,Sitarinkuja,61.30501,23.74208
7571,7571,Aittapolku,61.30723,23.74043
7572,7572,Aittapolku,61.30767,23.74039
7573,7573,Haurala,61.30999,23.74013
7600,7600,Vesilahti th,61.29947,23.74486
7601,7601,Vesilahti th,61.29975,23.74644
7602,7602,Lomamökit,61.29873,23.72781
7603,7603,Lomamökit,61.29860,23.72910
7604,7604,Toutosentie,61.29860,23.72103
7605,7605,Toutosentie,61.29835,23.72337
7606,7606,Päivääniemi,61.29574,23.69691
7607,7607,Päivääniemi,61.29521,23.69937
7608,7608,Prikoolinnokka,61.29660,23.69155
7609,7609,Prikoolinnokka,61.29628,23.69229
7610,7610,Koirainmäki,61.29968,23.66252
7611,7611,Koirainmäki,61.29944,23.66399
7612,7612,Kausala,61.29788,23.64593
7613,7613,Kausala,61.29798,23.64763
7614,7614,Kesontie,61.29686,23.63765
7615,7615,Kesontie,61.29630,23.63818
7616,7616,Kirkonkylän koulu,61.30075,23.62947
7617,7617,Kirkonkylän koulu,61.30071,23.62906
7618,7618,Tapolantie,61.30356,23.62814
7619,7619,Tapolantie,61.30326,23.62776
7620,7620,Kirkkolahdentie,61.30516,23.62787
7621,7621,Kirkkolahdentie,61.30477,23.62758
7622,7622,Vesilahden kirkko,61.31004,23.62077
7623,7623,Vesilahden kirkko,61.30979,23.62143
7624,7624,Vesilahti,61.31007,23.61023
7625,7625,Vesilahti,61.30985,23.61212
7650,7650,Kiilto,61.40839,23.76479
7651,7651,Kiilto,61.40857,23.76434
7652,7652,Kultasepäntie,61.40774,23.77095
7653,7653,Kultasepäntie,61.40780,23.77025
7654,7654,Suutarintie,61.40973,23.77532
7655,7655,Suutarintie,61.40967,23.77485
7656,7656,Höytämöntie,61.41102,23.77792
7657,7657,Höytämöntie,61.41100,23.77715
7658,7658,Paununlahti,61.41186,23.78104
7660,7660,Taavetintie,61.41213,23.78547
7661,7661,Taavetintie,61.41239,23.78364
7662,7662,Höytämö,61.41185,23.78921
7700,7700,Siskontie,61.34904,23.75402
7701,7701,Siskontie,61.34867,23.75460
7702,7702,Vanattara,61.36141,23.75543
7703,7703,Vanattara,61.36126,23.75614
7704,7704,Lehtimäentie,61.36573,23.75494
7705,7705,Lehtimäentie,61.36601,23.75544
7706,7706,Sorvalammentie,61.36800,23.75579
7707,7707,Sorvalammentie,61.36840,23.75680
7708,7708,Kukkolantie,61.37379,23.77292
7709,7709,Kukkolantie,61.37410,23.77489
7710,7710,Vätäräisentie,61.35324,23.75603
7711,7711,Vätäräisentie,61.35378,23.75671
7800,7800,Saikantie,61.35260,23.77933
7801,7801,Saikantie,61.35278,23.78116
7802,7802,Ideapark,61.36178,23.79871
7803,7803,Ideapark,61.36247,23.79909
7804,7804,Helsingintie,61.36606,23.79565
7805,7805,Helsingintie,61.36663,23.79935
7806,7806,Sääksjärvi th,61.41857,23.75914
7807,7807,Sääksjärvi th,61.41905,23.76129
7810,7810,Ruskea-ahde th,61.36824,23.78167
7811,7811,Ruskea-ahde th,61.36864,23.78197
7812,7812,Iisakintie,61.37270,23.78647
7813,7813,Iisakintie,61.37310,23.78712
7814,7814,Palomäki,61.37653,23.78368
7815,7815,Palomäki,61.37700,23.78287
7851,7851,Kesola,61.29593,23.63953
7858,7858,Koskenkyläntie,61.28350,23.58708
7859,7859,Koskenkyläntie,61.28367,23.58880
7860,7860,Vatajantie,61.28336,23.57138
7861,7861,Vatajantie,61.28311,23.57275
7862,7862,Kauppilantie,61.28410,23.56521
7863,7863,Kauppilantie,61.28390,23.56598
7864,7864,Maarianmäki,61.28405,23.55738
7865,7865,Maarianmäki,61.28386,23.55841
7866,7866,Ilmiäntie,61.28296,23.54826
7867,7867,Ilmiäntie,61.28304,23.55043
7868,7868,Viraantie,61.28209,23.53971
7869,7869,Viraantie,61.28187,23.54117
7870,7870,Asikaisentie,61.28317,23.53351
7871,7871,Asikaisentie,61.28279,23.53394
7872,7872,Koivistalhontie,61.28599,23.52450
7873,7873,Koivistalhontie,61.28599,23.52362
7874,7874,Punkalaitumentie,61.28747,23.51378
7875,7875,Punkalaitumentie,61.28711,23.51450
7876,7876,Kostialansaarentie,61.29033,23.50958
7877,7877,Kostialansaarentie,61.28994,23.50963
7879,7879,Latomaantie,61.29360,23.50102
7880,7880,Narva,61.29475,23.50398
7900,7900,Jokioistentie,61.30641,23.57831
7903,7903,Rautiala,61.30254,23.57629
7905,7905,Suomela,61.29115,23.59930
8000,8000,Liuttu,61.47395,23.94495
8001,8001,Liuttu,61.47430,23.94328
8002,8002,Pitkäjärvi,61.47306,23.95998
8003,8003,Kasarmi,61.47333,23.95793
8004,8004,Ilkonmäki,61.47283,23.96844
8005,8005,Kappeli,61.47297,23.97079
8006,8006,Ilkko,61.47257,23.97817
8007,8007,Mäkirinteentie,61.47273,23.98011
8008,8008,Artturintie,61.47222,23.98737
8009,8009,Lentolankuja,61.47230,23.98818
8010,8010,Mämmisuo,61.47171,23.99247
8011,8011,Lentolantie,61.47194,23.99197
8012,8012,Suorama,61.47107,24.00295
8013,8013,Suoraman työväentalo,61.47127,24.00272
8014,8014,Pähkinäkallio,61.47075,24.00966
8015,8015,Isolukko,61.47096,24.01233
8016,8016,Kaijanaho,61.47127,24.02347
8017,8017,Harjunsalo,61.47139,24.02169
8018,8018,Korpitie,61.47119,24.03128
8019,8019,Nikkarintie,61.47159,24.02869
8020,8020,Pikonkangas,61.46991,24.03706
8021,8021,Pikontie,61.47062,24.03489
8022,8022,Pikkola,61.46863,24.04349
8023,8023,Kiuruntie,61.46972,24.03861
8024,8024,Pikkolan koulu,61.46738,24.04922
8025,8025,Peiponpolku,61.46894,24.04274
8026,8026,Rääkkölä,61.46579,24.05415
8027,8027,Kangasalan jäähalli,61.46773,24.04862
8028,8028,Tarpila,61.46451,24.05848
8029,8029,Rekiälä,61.46551,24.05568
8030,8030,Urkutehdas,61.46354,24.06450
8031,8031,Tapulinmäki,61.46381,24.06823
8032,8032,Kirkkomaa,61.46364,24.06858
8034,8034,Kangasala,61.46227,24.07217
8035,8035,Kangasala,61.46222,24.07238
8037,8037,Pikkuharju,61.46264,24.07748
8039,8039,Kuohunharju,61.46217,24.08120
8040,8040,Kangasala,61.46244,24.07226
8041,8041,Herttualantie,61.46009,24.08793
8042,8042,Kuohunlahti,61.46185,24.08206
8043,8043,Jousitie,61.45845,24.09662
8044,8044,Herttualantie,61.45998,24.08760
8045,8045,Mäyrävuori,61.45529,24.10326
8046,8046,Jousitie,61.45810,24.09729
8047,8047,Jokioistentie,61.45130,24.10479
8048,8048,Mäyrävuori,61.45510,24.10297
8049,8049,Kirvesmiehentie,61.44974,24.10812
8050,8050,Jokioistentie,61.45157,24.10392
8051,8051,Kangasalan ammattiopisto,61.44891,24.10685
8052,8052,Kirvesmiehentie,61.44966,24.10787
8053,8053,Yli-Marttila,61.44662,24.10781
8054,8054,Kangasalan ammattiopisto,61.44892,24.10612
8055,8055,Tiihala th,61.44081,24.12052
8056,8056,Yli-Marttila,61.44619,24.10830
8057,8057,Keisarinharju,61.43845,24.12352
8058,8058,Tiihala th,61.44006,24.12108
8059,8059,Syrjänpääntie,61.42888,24.13152
8060,8060,Keisarinharju,61.43808,24.12346
8062,8062,Syrjänpääntie,61.42830,24.13184
8064,8064,Kaivannon sairaala,61.42615,24.13573
8070,8070,Pikkola,61.46510,24.04840
8080,8080,Suoraman koulu,61.47386,24.00075
8081,8081,Suoraman koulu,61.47361,24.00092
8101,8101,Urheilutie,61.46443,24.07208
8102,8102,Lepokodintie,61.46765,24.06331
8103,8103,Lepokodintie,61.46775,24.06358
8104,8104,Mäntyveräjä,61.47023,24.05790
8107,8107,Mäntyveräjä,61.47060,24.05648
8108,8108,Tursola,61.47647,24.03732
8109,8109,Tursola,61.47749,24.03577
8110,8110,Papinojantie,61.48112,24.02974
8111,8111,Papinojantie,61.48165,24.02878
8112,8112,Otsolantie,61.48563,24.01685
8113,8113,Otsolantie,61.48607,24.01642
8114,8114,Kortesuontie,61.48852,24.01271
8115,8115,Kortesuontie,61.48951,24.01165
8116,8116,Metsäkulma,61.49073,24.00804
8117,8117,Metsäkulma,61.49098,24.00785
8118,8118,Seppämestarintie,61.49242,24.00187
8121,8121,Seppämestarintie,61.49246,24.00044
8122,8122,Kangasalan asema th,61.49514,23.99424
8125,8125,Kangasalan asema th,61.49514,23.99347
8126,8126,Luottamusmiehentie,61.49256,23.99043
8127,8127,Luottamusmiehentie,61.49209,23.98971
8128,8128,Pajatie,61.48489,23.98321
8129,8129,Pajatie,61.48473,23.98229
8130,8130,Kalliontie,61.48323,23.97898
8131,8131,Kalliontie,61.48308,23.97754
8133,8133,Vällintie,61.48154,23.96922
8140,8140,Mannakorpi,61.48189,23.93771
8141,8141,Mannakorpi,61.48224,23.93732
8142,8142,Iivarintie,61.47944,23.94152
8143,8143,Iivarintie,61.47985,23.94129
8144,8144,Nattari,61.47716,23.94475
8145,8145,Nattari,61.47762,23.94450
8146,8146,Vatialan koulu,61.47667,23.94919
8147,8147,Vatialan koulu,61.47659,23.94804
8148,8148,Sudenkorennontie,61.47982,23.96269
8149,8149,Sudenkorennontie,61.47979,23.96166
8150,8150,Mäntyveräjä,61.47125,24.05786
8151,8151,Pikonlinna th,61.47598,24.05657
8152,8152,Pikonlinna th,61.47668,24.05735
8153,8153,Tavela,61.47738,24.06078
8154,8154,Tavela,61.47737,24.06138
8155,8155,Riunlahti,61.47916,24.06735
8156,8156,Riunlahti,61.47920,24.06800
8157,8157,Riunoja,61.48221,24.06952
8158,8158,Riunoja,61.48248,24.06991
8159,8159,Rikun päiväkoti,61.48532,24.07430
8160,8160,Rikun päiväkoti,61.48548,24.07534
8161,8161,Vallituntie,61.48681,24.08090
8162,8162,Vallituntie,61.48687,24.08152
8163,8163,Reumantie,61.48844,24.08344
8164,8164,Reumantie,61.48856,24.08408
8166,8166,Pikonlinna,61.49250,24.08631
8170,8170,Vällintie,61.48024,23.97042
8171,8171,Vällintie,61.48067,23.97002
8173,8173,Vällintie,61.48055,23.97045
8190,8190,Laureeninkallio,61.52961,23.99826
8200,8200,Laureenintie,61.53036,23.99998
8201,8201,Laureenintie,61.53064,23.99901
8202,8202,Honkatie,61.52938,24.00560
8203,8203,Honkatie,61.52995,24.00406
8204,8204,Leppätie,61.52860,24.01087
8205,8205,Leppätie,61.52921,24.00978
8206,8206,Ruutana,61.52669,24.01858
8207,8207,Ruutana,61.52721,24.01760
8208,8208,Lakolammentie,61.52583,24.02426
8209,8209,Lakolammentie,61.52619,24.02146
8210,8210,Korvenperä,61.52362,24.03264
8211,8211,Korvenperä,61.52388,24.03229
8212,8212,Ruutanan koulu,61.52150,24.03457
8213,8213,Ruutanan koulu,61.52144,24.03486
8214,8214,Lakoniitty,61.51861,24.03345
8215,8215,Lakoniitty,61.51867,24.03380
8216,8216,Huhdintie,61.51503,24.03426
8217,8217,Huhdintie,61.51591,24.03358
8218,8218,Lahdensivuntie,61.51143,24.04294
8219,8219,Lahdensivuntie,61.51184,24.04259
8220,8220,Hepolahti,61.50325,24.04443
8221,8221,Hepolahti,61.50355,24.04447
8222,8222,Raskintie,61.49872,24.04527
8223,8223,Raskintie,61.49936,24.04568
8224,8224,Kalliolantie,61.49520,24.04733
8225,8225,Kalliolantie,61.49466,24.04770
8226,8226,Päkinmäki,61.49190,24.05332
8227,8227,Päkinmäki,61.49246,24.05276
8228,8228,Leppämäentie,61.48805,24.05571
8229,8229,Leppämäentie,61.48870,24.05608
8230,8230,Riitinmäentie,61.48469,24.05464
8231,8231,Riitinmäentie,61.48538,24.05504
8232,8232,Jussila th,61.52665,24.01756
8234,8234,Iskelä,61.52538,24.01577
8235,8235,Iskelä,61.52544,24.01619
8236,8236,Salotie,61.52255,24.01250
8237,8237,Salotie,61.52280,24.01303
8238,8238,Ratavartijantie,61.51908,24.00951
8239,8239,Ratavartijantie,61.51951,24.01001
8240,8240,Jussila,61.51517,24.00774
8300,8300,Satusedäntie,61.52341,24.03741
8301,8301,Satusedäntie,61.52344,24.03634
8302,8302,Ranssila,61.52437,24.04413
8303,8303,Ranssila,61.52428,24.04256
8304,8304,Mustoontie,61.52668,24.04809
8305,8305,Mustoontie,61.52583,24.04702
8306,8306,Muistomerkintie,61.53299,24.05014
8307,8307,Muistomerkintie,61.53259,24.04946
8308,8308,Suinula,61.53680,24.05187
8309,8309,Suinula,61.53599,24.05177
8311,8311,Suinula as th,61.53904,24.04868
8316,8316,Suinulan asema,61.54217,24.05595
8320,8320,Siitamantie,61.53656,24.05287
8322,8322,Vanhatie,61.53892,24.06177
8323,8323,Vanhatie,61.53915,24.06193
8324,8324,Rukoushuone,61.54075,24.06931
8325,8325,Rukoushuone,61.54066,24.06787
8326,8326,Yli-Nikkilä,61.54234,24.07608
8327,8327,Yli-Nikkilä,61.54238,24.07476
8328,8328,Toosilanniementie,61.54171,24.08662
8329,8329,Toosilanniementie,61.54181,24.08505
8331,8331,Perälä th,61.54807,24.11335
8350,8350,Myllytie,61.45443,24.11698
8351,8351,Myllytie,61.45433,24.11663
8352,8352,Vääksynpolku,61.45970,24.12088
8353,8353,Vääksynpolku,61.45911,24.12004
8354,8354,Ranta-Virkkula,61.46325,24.12378
8355,8355,Ranta-Virkkula,61.46264,24.12294
8356,8356,Kesäpirtti,61.47040,24.13028
8357,8357,Kesäpirtti,61.47048,24.13070
8358,8358,Kaipaanniemi,61.47315,24.13530
8359,8359,Kaipaanniemi,61.47293,24.13457
8360,8360,Suomatka,61.47616,24.14058
8361,8361,Suomatka,61.47589,24.13979
8362,8362,Hokkanen,61.48004,24.14736
8363,8363,Hokkanen,61.48014,24.14709
8364,8364,Kurkiniemi,61.48342,24.15289
8365,8365,Kurkiniemi,61.48337,24.15254
8366,8366,Keso,61.49001,24.15910
8367,8367,Keso,61.48944,24.15799
8368,8368,Talvilahti,61.49255,24.16220
8369,8369,Talvilahti,61.49218,24.16156
8370,8370,Kaitaa,61.49657,24.16568
8371,8371,Kaitaa,61.49720,24.16645
8372,8372,Sammalisto,61.50356,24.18410
8373,8373,Sammalisto,61.50353,24.18399
8374,8374,Rutamäki,61.50620,24.19627
8375,8375,Rutamäki,61.50607,24.19551
8376,8376,Sillanmäki,61.50796,24.20504
8377,8377,Sillanmäki,61.50792,24.20357
8378,8378,Vahderpää,61.50922,24.21019
8379,8379,Vahderpää,61.50906,24.20855
8380,8380,Muuramäki,61.51197,24.21832
8381,8381,Muuramäki,61.51156,24.21661
8382,8382,Raudanmaantie,61.51745,24.22434
8383,8383,Raudanmaantie,61.51728,24.22366
8384,8384,Järvikulmantie,61.52234,24.22935
8385,8385,Järvikulmantie,61.52187,24.22821
8386,8386,Ranta-Einola,61.52443,24.23293
8387,8387,Ranta-Einola,61.52388,24.23181
8388,8388,Leppoja,61.52672,24.23744
8389,8389,Leppoja,61.52644,24.23625
8390,8390,Hopearanta,61.52934,24.24652
8391,8391,Hopearanta,61.52931,24.24530
8392,8392,Parantaja,61.53289,24.25571
8393,8393,Parantaja,61.53246,24.25422
8394,8394,Tulokkaantie,61.53433,24.26162
8395,8395,Tulokkaantie,61.53421,24.26018
8396,8396,Kautialan koulu,61.53543,24.26601
8397,8397,Kautialan koulu,61.53527,24.26616
8398,8398,Isonkiventie,61.53632,24.27024
8399,8399,Isonkiventie,61.53624,24.27078
8400,8400,Karppilanrantatie,61.53863,24.28214
8401,8401,Karppilanrantatie,61.53844,24.28052
8402,8402,Peräkorventie,61.54020,24.28954
8403,8403,Peräkorventie,61.54008,24.28863
8404,8404,Ponsantie,61.54232,24.29641
8405,8405,Ponsantie,61.54225,24.29522
8406,8406,Neulaniemi,61.54378,24.30372
8407,8407,Neulaniemi,61.54365,24.30215
8408,8408,Rantalanlahti,61.54575,24.31160
8409,8409,Rantalanlahti,61.54544,24.31026
8410,8410,Rantahaka,61.54910,24.31611
8412,8412,Kirkkosaarentie,61.55107,24.31526
8413,8413,Kirkkosaarentie,61.55019,24.31534
8414,8414,Ponsa,61.55417,24.31334
8415,8415,Ponsa,61.55345,24.31357
8416,8416,Pihtikorpi,61.55864,24.30761
8417,8417,Pihtikorpi,61.55825,24.30745
8418,8418,Mäyrä,61.56845,24.30414
8419,8419,Mäyrä,61.56778,24.30444
8420,8420,Kautio,61.57671,24.30065
8421,8421,Kautio,61.57648,24.29994
8422,8422,Rauhala,61.58956,24.30279
8423,8423,Rauhala,61.58890,24.30285
8424,8424,Tollionmaa,61.59360,24.30631
8425,8425,Tollionmaa,61.59401,24.30676
8426,8426,Rajalahdentie,61.59807,24.31118
8427,8427,Rajalahdentie,61.59770,24.31087
8428,8428,Naappila,61.60685,24.30975
8429,8429,Naappila,61.60649,24.30939
8430,8430,Orivedentie,61.61011,24.30868
8431,8431,Orivedentie,61.61038,24.30792
8432,8432,Pukkivuori,61.61425,24.30370
8433,8433,Pukkivuori,61.61447,24.30298
8434,8434,Väinöläntie,61.62314,24.30538
8435,8435,Väinöläntie,61.62338,24.30607
8436,8436,Hyväsillantie,61.62423,24.31121
8437,8437,Hyväsillantie,61.62402,24.30973
8438,8438,Kapulantie,61.62682,24.31887
8439,8439,Kapulantie,61.62684,24.31836
8440,8440,Hermannintie,61.63039,24.32405
8441,8441,Hermannintie,61.63112,24.32419
8442,8442,Pysäkkitie,61.63392,24.33101
8443,8443,Pysäkkitie,61.63488,24.33242
8444,8444,Ruskatie,61.64009,24.33984
8445,8445,Ruskatie,61.63916,24.33801
8446,8446,Hiedantie,61.64245,24.34717
8447,8447,Hiedantie,61.64191,24.34480
8448,8448,Varismäki,61.64461,24.35255
8449,8449,Varismäki,61.64424,24.35124
8470,8470,Oriveden asema,61.64827,24.35765
8471,8471,Oriveden asema,61.64753,24.35636
8472,8472,Mäkitie,61.65592,24.36174
8473,8473,Mikontie,61.65491,24.36135
8474,8474,Sairaalantie,61.66494,24.35731
8475,8475,Sairaalantie,61.66333,24.35750
8476,8476,Keskustie,61.66836,24.35516
8480,8480,Oriveden keskusta,61.67589,24.35781
8481,8481,Oriveden keskusta,61.67678,24.35714
8482,8482,Oriveden hautausmaa,61.67244,24.35693
8483,8483,Oriveden hautausmaa,61.67273,24.35651
8485,8485,Orivesi,61.67679,24.35327
8500,8500,Maatiala,61.48260,23.55339
8501,8501,Maatiala,61.48178,23.55528
8502,8502,Kennonnokka,61.48205,23.54086
8503,8503,Kennonnokka,61.48192,23.54136
8504,8504,Nokian kirkko,61.48046,23.53108
8505,8505,Nokian kirkko,61.48028,23.53123
8506,8506,Nokian lukio,61.48092,23.51848
8507,8507,Nokian lukio,61.48061,23.51981
8508,8508,Kylmäojanpuisto,61.48145,23.51219
8509,8509,Kylmäojanpuisto,61.48125,23.51236
8510,8510,Tyttölä,61.48356,23.50712
8511,8511,Tyttölä,61.48342,23.50703
8512,8512,Härkitie,61.48141,23.51014
8520,8520,Nokian asema D,61.48114,23.50180
8522,8522,Nokian asema A,61.48108,23.50141
8524,8524,Nokian asema C,61.48101,23.50155
8526,8526,Nokian asema B,61.48120,23.50164
8528,8528,Nokian asema E,61.48049,23.50161
8530,8530,Nokian ammattiopisto,61.48565,23.51232
8531,8531,Nokian ammattiopisto,61.48572,23.51083
8532,8532,Kankaantaankatu,61.48608,23.52121
8533,8533,Kankaantaankatu,61.48605,23.52323
8534,8534,Kankaantaka,61.48628,23.52995
8535,8535,Kankaantaka,61.48601,23.52952
8536,8536,Pajakatu,61.48839,23.52992
8537,8537,Pajakatu,61.48836,23.52953
8538,8538,Öljytie,61.49095,23.53315
8539,8539,Öljytie,61.49109,23.53288
8540,8540,Kalkuntie 1-3,61.49109,23.53523
8541,8541,Kalkuntie 1-3,61.49125,23.53366
8542,8542,Horsmapolku,61.49128,23.54461
8543,8543,Horsmapolku,61.49136,23.54360
8544,8544,Vihnusjärvenkatu,61.49093,23.55043
8545,8545,Vihnusjärvenkatu,61.49121,23.55157
8546,8546,Vihnuskallionkatu,61.49273,23.55756
8547,8547,Vihnuskallionkatu,61.49267,23.55689
8548,8548,Välimaantie,61.49446,23.56414
8549,8549,Välimaantie,61.49445,23.56352
8554,8554,Perkiönkatu,61.49354,23.52827
8555,8555,Perkiönkatu,61.49337,23.52758
8556,8556,Kallenkatu,61.46665,23.50092
8557,8557,Kallenkatu,61.46651,23.50087
8560,8560,Halimaa,61.49061,23.51362
8561,8561,Halimaa,61.49073,23.51359
8562,8562,Pajakallionkatu,61.49084,23.51925
8563,8563,Pajakallionkatu,61.49098,23.51732
8564,8564,Ilkan alue,61.49176,23.52430
8565,8565,Ilkan alue,61.49174,23.52300
8567,8567,Rapinkorventie,61.49508,23.53032
8569,8569,Kankaantaan koulu,61.48595,23.51931
8570,8570,Villa Silva,61.48551,23.50300
8571,8571,Villa Silva,61.48532,23.50287
8572,8572,Myllyhaka,61.48752,23.49552
8573,8573,Myllyhaka,61.48738,23.49535
8576,8576,Lähdekorpi,61.49121,23.49642
8577,8577,Lähdekorpi,61.49099,23.49607
8578,8578,Notkotie,61.49472,23.49369
8579,8579,Notkotie,61.49459,23.49354
8580,8580,Pitkäkorventie,61.49435,23.48708
8581,8581,Pitkäkorventie,61.49439,23.48830
8582,8582,Lähdeniitty,61.49358,23.48284
8583,8583,Lähdeniitty,61.49349,23.48329
8584,8584,Valimokatu,61.49194,23.47914
8585,8585,Valimokatu,61.49186,23.47954
8586,8586,Taka-Lauttala,61.48770,23.47725
8587,8587,Taka-Lauttala,61.48764,23.47760
8588,8588,Torvisienenkatu,61.48432,23.47112
8589,8589,Torvisienenkatu,61.48455,23.47177
8590,8590,Metsäsepänpuisto,61.48065,23.46898
8591,8591,Metsäsepänpuisto,61.48065,23.46980
8596,8596,Koppelonkatu,61.47674,23.45580
8597,8597,Koppelonkatu,61.47674,23.45614
8598,8598,Harjuniitty,61.47215,23.45336
8600,8600,Nokian terveyskeskus,61.47934,23.50311
8601,8601,Nokian terveyskeskus,61.47965,23.50277
8602,8602,Pirkkalaistori,61.47754,23.51009
8603,8603,Pirkkalaistori,61.47780,23.51012
8604,8604,Kumitehdas,61.47393,23.50531
8605,8605,Kumitehdas,61.47371,23.50578
8606,8606,Orelinkatu,61.46797,23.50380
8607,8607,Orelinkatu,61.46796,23.50431
8608,8608,Nuijamiestentie,61.46696,23.50801
8609,8609,Nuijamiestentie,61.46692,23.50749
8610,8610,Viholanraitti,61.46852,23.51313
8611,8611,Viholanraitti,61.46867,23.51227
8612,8612,Eden,61.46860,23.52491
8613,8613,Eden,61.46826,23.52501
8614,8614,Vihola,61.46547,23.51910
8615,8615,Vihola,61.46551,23.51953
8616,8616,Päivärinteentie,61.46269,23.51658
8617,8617,Päivärinteentie,61.46242,23.51693
8618,8618,Räikäntie,61.46067,23.51134
8619,8619,Räikäntie,61.46073,23.51252
8620,8620,Piilenmäenkatu,61.45852,23.50982
8621,8621,Piilenmäenkatu,61.45862,23.51022
8622,8622,Pähkinämäentie,61.45741,23.50705
8623,8623,Pähkinämäentie,61.45744,23.50767
8624,8624,Keho,61.45602,23.50304
8625,8625,Keho,61.45617,23.50340
8626,8626,Menkala,61.45956,23.50302
8627,8627,Menkala,61.45995,23.50303
8628,8628,Ilveskatu,61.45946,23.49854
8629,8629,Ilveskatu,61.45962,23.49832
8630,8630,Koskenmäen koulu,61.45952,23.49414
8631,8631,Koskenmäen koulu,61.45971,23.49412
8632,8632,Kenttäkatu,61.46137,23.48977
8633,8633,Kenttäkatu,61.46141,23.49006
8634,8634,Ruskeepää,61.46416,23.48701
8635,8635,Ruskeepää,61.46426,23.48687
8636,8636,Kalhunkatu,61.46351,23.48089
8637,8637,Kalhunkatu,61.46373,23.48051
8638,8638,Ristiveräjä,61.46462,23.47844
8639,8639,Ristiveräjä,61.46448,23.47832
8640,8640,Nikkarinkatu,61.46626,23.48845
8641,8641,Nikkarinkatu,61.46622,23.48899
8642,8642,Ahteensivu,61.46789,23.49786
8643,8643,Ahteensivu,61.46789,23.49872
8644,8644,Tiesenmäki,61.46900,23.50205
8645,8645,Tiesenmäki,61.46961,23.50412
8647,8647,Viholan ramppi,61.46809,23.52262
8650,8650,Suonsivuntie,61.45926,23.49045
8651,8651,Suonsivuntie,61.45930,23.49141
8652,8652,Rälssikatu,61.45305,23.48256
8653,8653,Rälssikatu,61.45314,23.48281
8654,8654,Tupsunluhta,61.44896,23.48422
8655,8655,Tupsunluhta,61.44899,23.48457
8656,8656,Tervasuo,61.44413,23.47649
8657,8657,Tervasuo,61.44452,23.47746
8658,8658,Sammalisto,61.44206,23.47359
8660,8660,Emäkosken koulu,61.46291,23.49320
8661,8661,Emäkosken koulu,61.46310,23.49368
8662,8662,Poutunpuisto,61.47993,23.50988
8664,8664,Kankaantaan koulu Ilkantie,61.48550,23.51977
8707,8707,Pitkäniementie,61.48565,23.57990
8708,8708,Pitkäniementie,61.48493,23.58274
8709,8709,Pitkäniementie,61.48548,23.58033
8710,8710,Pitkäniemi,61.48118,23.57896
8712,8712,Pitkäniemi,61.48091,23.57886
8714,8714,Pitkäniemen päiväkoti,61.48320,23.58000
8715,8715,Pitkäniemen päiväkoti,61.48392,23.58112
8717,8717,Pitkäniemen päiväkoti,61.48365,23.58094
8720,8720,Kaarikatu,61.48851,23.51051
8721,8721,Kaarikatu,61.48817,23.50967
8722,8722,Rounionkatu,61.48519,23.50551
8723,8723,Rounionkatu,61.48531,23.50525
8725,8725,Kankaantaka,61.48566,23.52973
8726,8726,Vihnuskoti,61.48368,23.53020
8727,8727,Vihnuskoti,61.48407,23.52976
8750,8750,Kalkku th,61.49047,23.58778
8751,8751,Kalkku th,61.49067,23.59079
8752,8752,Pitkäniemi th,61.48658,23.57688
8753,8753,Pitkäniemi th,61.48720,23.57939
8754,8754,Kappelinmäki,61.48372,23.56162
8755,8755,Kappelinmäki,61.48357,23.56185
8756,8756,Sarpatti,61.48303,23.55202
8757,8757,Sarpatti,61.48293,23.55164
8800,8800,Muuntajakuja,61.44208,23.47316
8801,8801,Muuntajakuja,61.44199,23.47349
8802,8802,Sammalistontie,61.44016,23.46626
8803,8803,Sammalistontie,61.44010,23.46670
8804,8804,Rajatie,61.43801,23.46313
8805,8805,Rajatie,61.43807,23.46382
8806,8806,Naulonlahdentie,61.43503,23.46009
8807,8807,Naulonlahdentie,61.43569,23.46090
8808,8808,Ketteenniementie,61.43020,23.45492
8809,8809,Ketteenniementie,61.43032,23.45577
8810,8810,Loukko,61.42717,23.44999
8811,8811,Loukko,61.42801,23.45115
8812,8812,Murtoonvuori,61.42420,23.44793
8813,8813,Murtoonvuori,61.42424,23.44828
8814,8814,Sorva,61.42170,23.44270
8815,8815,Sorva,61.42159,23.44463
8816,8816,Metsä-Tuomaalantie,61.42554,23.41762
8817,8817,Metsä-Tuomaalantie,61.42578,23.41649
8818,8818,Susitaipale,61.42674,23.39594
8819,8819,Susitaipale,61.42643,23.39483
8820,8820,Lamminperä,61.42682,23.36504
8821,8821,Lamminperä,61.42705,23.36676
8822,8822,Yli-Marttila,61.42115,23.33968
8823,8823,Yli-Marttila,61.42130,23.34015
8824,8824,Ali-Marttila,61.41815,23.33637
8825,8825,Ali-Marttila,61.41932,23.33822
8826,8826,Naskalintie,61.41204,23.33484
8827,8827,Naskalintie,61.41259,23.33513
8828,8828,Tolppa,61.40569,23.33590
8829,8829,Tolppa,61.40647,23.33557
8831,8831,Tottijärvi,61.40073,23.34312
8832,8832,Pajulahti,61.40058,23.37711
8840,8840,Paloasema,61.46585,24.03787
8841,8841,Paloasema,61.46581,24.03822
8842,8842,Korpiniitty,61.46113,24.03585
8843,8843,Korpiniitty,61.46191,24.03658
8844,8844,Ranta-Koivisto,61.45734,24.03469
8845,8845,Ranta-Koivisto,61.45819,24.03517
8846,8846,Suntinmäenkuja,61.45232,24.03085
8847,8847,Suntinmäenkuja,61.45309,24.03408
8848,8848,Liuksialan koulu,61.45167,24.02172
8849,8849,Liuksialan koulu,61.45167,24.02279
8850,8850,Uotila,61.45089,24.01325
8851,8851,Uotila,61.45082,24.01358
8852,8852,Utukanpolku,61.45060,24.00553
8853,8853,Utukanpolku,61.45046,24.00583
8854,8854,Pajutila,61.45009,23.99922
8855,8855,Pajutila,61.45015,23.99978
8856,8856,Ketunpolku,61.44644,23.99074
8857,8857,Ketunpolku,61.44613,23.99050
8858,8858,Saarenmaantie,61.44482,23.97983
8859,8859,Saarenmaantie,61.44485,23.98072
8860,8860,Ruishuhta,61.44392,23.97459
8861,8861,Ruishuhta,61.44371,23.97408
8862,8862,Ruokoniityntie,61.44252,23.96279
8863,8863,Ruokoniityntie,61.44235,23.96352
8864,8864,Alanko,61.44581,23.95369
8866,8866,Toikkola,61.45272,24.03537
8867,8867,Toikkola,61.45377,24.03491
8868,8868,Tähkätie,61.44971,24.03521
8869,8869,Tähkätie,61.45065,24.03581
8870,8870,Leru,61.44604,24.03499
8871,8871,Leru,61.44648,24.03486
8872,8872,Liuksiala,61.44083,24.03624
8873,8873,Liuksiala,61.44102,24.03706
8874,8874,Koivikko,61.43874,24.03105
8875,8875,Koivikko,61.43849,24.03079
8876,8876,Ahulisto,61.43821,24.01723
8877,8877,Ahulisto,61.43811,24.01800
8878,8878,Varsamäentie,61.43747,24.00968
8879,8879,Varsamäentie,61.43753,24.01097
8880,8880,Vedenottamontie,61.43659,24.00487
8881,8881,Vedenottamontie,61.43671,24.00578
8882,8882,Suojoki,61.43492,24.00089
8883,8883,Suojoki,61.43502,24.00157
8884,8884,Antinkärki,61.43068,23.99749
8885,8885,Antinkärki,61.43100,23.99793
8886,8886,Kaarina Maununtyttären tie 617,61.42864,23.99547
8887,8887,Kaarina Maununtyttären tie 617,61.42873,23.99586
8888,8888,Ohtola,61.42171,23.98744
8889,8889,Ohtola,61.42195,23.98792
8890,8890,Klemola,61.41837,23.98748
8891,8891,Klemola,61.41868,23.98773
8892,8892,Killinmäki,61.41628,23.98401
8893,8893,Killinmäki,61.41651,23.98530
8894,8894,Kurunkyläntie,61.41180,23.97697
8895,8895,Kurunkyläntie,61.41199,23.97839
8896,8896,Savo,61.40897,23.97173
8897,8897,Savo,61.40933,23.97250
8898,8898,Pääskyniementie,61.40533,23.97555
8899,8899,Pääskyniementie,61.40585,23.97526
8900,8900,Haapaniemi,61.40355,23.99028
8901,8901,Haapaniemi,61.40351,23.99126
8902,8902,Mikkolantie,61.39975,23.99795
8903,8903,Mikkolantie,61.40032,23.99805
8904,8904,Mustalahdentie,61.39555,23.99667
8905,8905,Mustalahdentie,61.39626,23.99795
8906,8906,Pohjanperä,61.38957,23.99835
8907,8907,Pohjanperä,61.39062,23.99808
8908,8908,Rantalantie,61.38542,24.00637
8909,8909,Rantalantie,61.38569,24.00542
8910,8910,Papinsaarentie,61.38158,24.02049
8911,8911,Papinsaarentie,61.38213,24.02007
8912,8912,Murtoniementie,61.37891,24.02470
8913,8913,Murtoniementie,61.37930,24.02421
8914,8914,Alhontie,61.37584,24.02927
8915,8915,Alhontie,61.37578,24.03031
8916,8916,Kokojärvi,61.37233,24.03447
8917,8917,Kokojärvi,61.37213,24.03517
8918,8918,Kokonniemi,61.37091,24.04430
8919,8919,Kokonniemi,61.37066,24.04588
8920,8920,Kuohenmaa,61.36776,24.05096
8921,8921,Kuohenmaa,61.36703,24.05212
8922,8922,Metsäpellontie,61.35950,24.04949
8923,8923,Metsäpellontie,61.35999,24.04949
8924,8924,Viiritie,61.35505,24.05147
8925,8925,Viiritie,61.35573,24.05165
8926,8926,Kaarina Maununtyttären tie1820,61.34999,24.04631
8927,8927,Kaarina Maununtyttären tie1820,61.35032,24.04778
8928,8928,Ojalantie,61.34321,24.05151
8929,8929,Ojalantie,61.34357,24.05139
8930,8930,Valkeakosken raja,61.33914,24.05508
8931,8931,Valkeakosken raja,61.33876,24.05627
8940,8940,Kangasalan ammattiopisto,61.44863,24.10665
